,Store Title,State,City,Latitude,Longitude
0,Chipotle Auburn Campus,Alabama,Auburn,32.606812966051244,-85.48732833164195
1,Chipotle UAB Birmingham,Alabama,Birmingham,33.509721495414745,-86.80275567068401
2,Chipotle Trussville,Alabama,Birmingham,33.59558141391436,-86.64743684970284
3,Chipotle Inverness,Alabama,Birmingham,33.42258214624579,-86.69827946502971
4,Chipotle Riverchase,Alabama,Hoover,33.37895802956859,-86.80380210088629
5,Chipotle Huntsville University Drive,Alabama,Huntsville,34.742319254429496,-86.6657204641674
6,Chipotle Mobile,Alabama,Mobile,30.675337809949887,-88.143753929995
7,Chipotle Westwood Plaza,Alabama,Mobile,30.68273057569605,-88.22499815689844
8,Chipotle Montgomery Eastchase,Alabama,Montgomery,32.35917687650774,-86.16225285227608
9,Chipotle Tiger Town Auburn,Alabama,Opelika,32.616808752194316,-85.40447876717928
10,Chipotle Prattville AL,Alabama,Prattville,32.459169,-86.391343
11,Chipotle BAMA Campus,Alabama,Tuscaloosa,33.21066866513092,-87.55362088910408
12,Chipotle Bama (University of Alabama),Alabama,Tuscaloosa,33.19675499999999,-87.52704204662706
13,Chipotle Vestavia Hills,Alabama,Vestavia Hills,33.439069161673594,-86.78828456747647
14,Chipotle 99th & McDowell,Arizona,Avondale,33.46437705872272,-112.27319356506382
15,Chipotle Sundance Town Center,Arizona,Buckeye,33.438234,-112.558371
16,Chipotle Casa Grande,Arizona,Casa Grande,32.8791300574308,-111.71123532758008
17,Chipotle Alma School & Queen Creek,Arizona,Chandler,33.2639222376452,-111.85726059752221
18,Chipotle Chandler Boulevard Shops,Arizona,Chandler,33.30528109389568,-111.89998219286281
19,Chipotle Chandler Pavilions,Arizona,Chandler,33.317420390822654,-111.96882761900793
20,Chipotle Flagstaff,Arizona,Flagstaff,35.18986,-111.661643
21,Chipotle Gilbert Town Square,Arizona,Gilbert,33.32988022270755,-111.79089592376448
22,Chipotle Cooper & Baseline,Arizona,Gilbert,33.37792420216465,-111.80763961039872
23,Chipotle SanTan,Arizona,Gilbert,33.3081148,-111.7427414
24,Chipotle Gilbert & 202,Arizona,Gilbert,33.28188695150705,-111.78889024926309
25,Chipotle 67th Ave and 101,Arizona,Glendale,33.66586688567123,-112.20341053026442
26,Chipotle Northern Crossing,Arizona,Glendale,33.552412562708156,-112.18544568239622
27,Chipotle 59th & Thunderbird,Arizona,Glendale,33.61131275531313,-112.18452254968548
28,Chipotle Arrowhead Towne Center,Arizona,Glendale,33.64207417858354,-112.22530473871643
29,Chipotle Westgate Glendale,Arizona,Glendale,33.53508567802172,-112.26195146901438
30,Chipotle Goodyear,Arizona,Goodyear,33.463806634713315,-112.35866282944778
31,Chipotle Kingman,Arizona,Kingman,35.22399203679119,-114.03705752131305
32,Chipotle Lake Havasu,Arizona,Lake Havasu City,34.47479664860446,-114.34551069653816
33,Chipotle Laveen,Arizona,Laveen,33.379389711654824,-112.16905083754398
34,Chipotle Cortaro and I-10,Arizona,Marana,32.354884717102536,-111.09165199846211
35,Chipotle Maricopa,Arizona,Maricopa,33.07352392871503,-112.04274078834322
36,Chipotle Stapley and McKellips,Arizona,Mesa,33.451065255847375,-111.80335687153053
37,Chipotle Alma School Relo,Arizona,Mesa,33.38960599017438,-111.85682718956662
38,Chipotle Superstition Springs Relo,Arizona,Mesa,33.38985461122482,-111.68395069882871
39,Chipotle Signal Butte and Baseline,Arizona,Mesa,33.37942481813418,-111.60094897883607
40,Chipotle Las Sendas,Arizona,Mesa,33.46790531239631,-111.68346853282071
41,Chipotle Dana Park,Arizona,Mesa,33.37966761390607,-111.75581290980438
42,Chipotle Power & 202,Arizona,Mesa,33.32550687825606,-111.6875981837469
43,Chipotle Oro Valley,Arizona,Oro Valley,32.3987337,-110.9557397
44,Chipotle Arrowhead Fountains,Arizona,Peoria,33.63626807976065,-112.23411100604244
45,Chipotle Happy Valley,Arizona,Peoria,33.711451,-112.273128
46,Chipotle Uptown,Arizona,Phoenix,33.5096508,-112.0716658
47,Chipotle City Scape,Arizona,Phoenix,33.44806055476972,-112.07445550735758
48,Chipotle Encanto,Arizona,Phoenix,33.46552269086844,-112.08237253214531
49,Chipotle Camelback,Arizona,Phoenix,33.51037506402035,-112.04622043510204
50,Chipotle Tatum and Bell,Arizona,Phoenix,33.63818544112361,-111.97738650921002
51,Chipotle Desert Ridge,Arizona,Phoenix,33.67446828247802,-111.97528710545907
52,Chipotle South Mountain,Arizona,Phoenix,33.377257168580776,-112.02987286502969
53,Chipotle I-17 & Bell,Arizona,Phoenix,33.640372836488105,-112.1122786414017
54,Chipotle Nortera,Arizona,Phoenix,33.7145861,-112.112542
55,Chipotle Deer Valley Town Center,Arizona,Phoenix,33.66665768531911,-112.12322165701374
56,Chipotle Metro Center,Arizona,Phoenix,33.5813937,-112.1252007
57,Chipotle Arcadia Fiesta,Arizona,Phoenix,33.49495085405304,-112.01463337627501
58,Chipotle Ahwatukee,Arizona,Phoenix,33.30479751662666,-111.99361395337297
59,Chipotle 7th St. & Bell Road,Arizona,Phoenix,33.63993406534886,-112.06746827976605
60,Chipotle 44th & Thomas,Arizona,Phoenix,33.47971018719496,-111.98621165153793
61,Chipotle Paradise Valley,Arizona,Phoenix,33.599529,-111.981757
62,Chipotle 48th St and Broadway,Arizona,Phoenix,33.406421,-111.979649
63,Chipotle Desert Sky,Arizona,Phoenix,33.479676480750506,-112.21983422329617
64,Chipotle Prescott,Arizona,Prescott,34.54663162772478,-112.46924604662706
65,Chipotle Prescott Valley,Arizona,Prescott Valley,34.578155,-112.362518
66,Chipotle Ritten House,Arizona,Queen Creek,33.256185336370194,-111.63888845969365
67,Chipotle Scottsdale and Shea,Arizona,Scottsdale,33.58595737304114,-111.92558185222026
68,Chipotle Thompson Peak,Arizona,Scottsdale,33.622401247673174,-111.873954738914
69,Chipotle Maloney,Arizona,Scottsdale,33.62637158586619,-111.92474231316208
70,Chipotle Grayhawk,Arizona,Scottsdale,33.67624139841698,-111.92401394661744
71,Chipotle Scottsdale and Thomas,Arizona,Scottsdale,33.479336912764616,-111.92576791791788
72,Chipotle Downtown Scottsdale,Arizona,Scottsdale,33.50337052422998,-111.92569464601536
73,Chipotle Scottsdale Fashion Square,Arizona,Scottsdale,33.5036726721399,-111.92923654571541
74,Chipotle Hayden & Royal Palm,Arizona,Scottsdale,33.55767260595806,-111.89910900180035
75,Chipotle Scottsdale Pavilions,Arizona,Scottsdale,33.53874231866907,-111.8876336951065
76,Chipotle 92nd & Shea,Arizona,Scottsdale,33.58081392662861,-111.8819009164954
77,Chipotle Sedona,Arizona,Sedona,34.8683633460064,-111.76199563343238
78,Chipotle Sierra Vista,Arizona,Sierra Vista,31.55986473884307,-110.25793857170959
79,Chipotle Surprise,Arizona,Surprise,33.63829071307527,-112.3590925355993
80,Chipotle ASU,Arizona,Tempe,33.41798133570578,-111.94040165583704
81,Chipotle Tempe Marketplace,Arizona,Tempe,33.433368350573275,-111.90183616209515
82,Chipotle Discovery,Arizona,Tempe,33.3497933,-111.9014817
83,Chipotle Rural & Baseline,Arizona,Tempe,33.37791758045822,-111.92908496080338
84,Chipotle I-19 & Irvington,Arizona,Tucson,32.1639328,-110.9897341
85,Chipotle Tucson Mall,Arizona,Tucson,32.286163825928526,-110.97564356043335
86,Chipotle Campbell Village,Arizona,Tucson,32.262389514895965,-110.9441263400534
87,Chipotle Grant & Swan,Arizona,Tucson,32.25002327893095,-110.89092465751298
88,Chipotle Park Place Mall,Arizona,Tucson,32.21917539349937,-110.865486800636
89,Chipotle Grant and Tanque Verde,Arizona,Tucson,32.25026412653463,-110.85154298893758
90,Chipotle Foothills,Arizona,Tucson,32.343577682700435,-111.0133044276954
91,Chipotle University Square,Arizona,Tucson,32.231921707186025,-110.95746181562401
92,Chipotle 22nd and Harrison,Arizona,Tucson,32.20596149006868,-110.79014354983957
93,Chipotle Yuma,Arizona,Yuma,32.69978529949036,-114.60102888404407
94,Chipotle Bentonville,Arkansas,Bentonville,36.33465562169019,-94.18511392344067
95,Chipotle Conway,Arkansas,Conway,35.09108728315982,-92.41823377546314
96,Chipotle College & Millsap,Arkansas,Fayetteville,36.11273654734074,-94.14538540335559
97,Chipotle University of Arkansas,Arkansas,Fayetteville,36.066736703377906,-94.16612579287357
98,Chipotle University & Markham,Arkansas,Little Rock,34.75201036980043,-92.34153181349183
99,Chipotle Pleasant Ridge Town Center,Arkansas,Little Rock,34.793541224083214,-92.40036710778713
100,Chipotle Burnaby Metrotown,British Columbia,Burnaby,49.227008,-123.000288
101,Chipotle Langley,British Columbia,Langley,49.11279589999999,-122.6723519
102,Chipotle Surrey Guildford Mall,British Columbia,Surrey,49.190084,-122.804027
103,Chipotle Vancouver Fairview,British Columbia,Vancouver,49.26292,-123.11603
104,Chipotle Vancouver Robson Square,British Columbia,Vancouver,49.28155,-123.12095
105,Chipotle West Vancouver,British Columbia,West Vancouver,49.32786790000001,-123.1394488
106,Chipotle Alameda Island,California,Alameda,37.756040876734254,-122.25041514023036
107,Chipotle Alameda Landing,California,Alameda,37.78614100776162,-122.28120659723874
108,Chipotle Alhambra II,California,Alhambra,34.09254302709484,-118.14575568686524
109,Chipotle Aliso Viejo,California,Aliso Viejo,33.577008,-117.725333
110,Chipotle Anaheim Town Square,California,Anaheim,33.83957989941753,-117.88867467392521
111,Chipotle East Anaheim,California,Anaheim,33.860569750992006,-117.79228294204808
112,Chipotle Anaheim Hills,California,Anaheim,33.86802786130575,-117.74815098742596
113,Chipotle Anaheim,California,Anaheim,33.81863895112696,-117.94176801989965
114,Chipotle Jess Ranch,California,Apple Valley,34.47069588108122,-117.2457914536875
115,Chipotle Santa Anita,California,Arcadia,34.13572656223666,-118.04973664929628
116,Chipotle Arroyo Grande,California,Arroyo Grande,35.12017354508283,-120.60171216458565
117,Chipotle Auburn,California,Auburn,38.94120080026161,-121.09614846331169
118,Chipotle Azusa,California,Azusa,34.12814641664687,-117.89157162822437
119,Chipotle River Walk Bakersfield,California,Bakersfield,35.35212176910199,-119.11911787270185
120,Chipotle Mt Vernon Bakersfield,California,Bakersfield,35.39223261450192,-118.96794031141218
121,Chipotle Valley Plaza Food Court,California,Bakersfield,35.3377069,-119.0351604
122,Chipotle Bakersfield NW,California,Bakersfield,35.40116339582047,-119.091834844792
123,Chipotle Bakersfield,California,Bakersfield,35.35453087454825,-119.05705893741703
124,Chipotle Gosford Village,California,Bakersfield,35.30652183893728,-119.09252875520804
125,Chipotle Baldwin Hills,California,Baldwin Hills,34.013284423748814,-118.33662499830109
126,Chipotle Baldwin Park,California,Baldwin Park,34.069396,-117.97208
127,Chipotle Banning,California,Banning,33.9238641,-116.9454427
128,Chipotle Barstow,California,Barstow,34.8528123628865,-117.08279671145499
129,Chipotle Gilman,California,Berkeley,37.87939337077996,-122.2963244817883
130,Chipotle Berkeley Shattuck,California,Berkeley,37.8688732912193,-122.26748664723874
131,Chipotle Telegraph Ave.,California,Berkeley,37.868384336918915,-122.25895608037399
132,Chipotle Beverly Hills,California,Beverly Hills,34.063323794483836,-118.39882933026638
133,Chipotle Little Santa Monica,California,Beverly Hills,34.071322645040006,-118.40356168956657
134,Chipotle Brea Mall,California,Brea,33.915677940492365,-117.8864340786871
135,Chipotle Brea,California,Brea,33.91179690220889,-117.88205261146413
136,Chipotle Brentwood Lone Tree Plaza,California,Brentwood,37.96126017826663,-121.74884971530332
137,Chipotle Centerpointe,California,Buena Park,33.85831428190834,-118.03057717907734
138,Chipotle Burbank,California,Burbank,34.18195878665414,-118.31143974113996
139,Chipotle Toluca Lake,California,Burbank,34.1516477,-118.3433513
140,Chipotle Cabazon,California,Cabazon,33.9232774,-116.8053387
141,Chipotle Camarillo Outlets,California,Camarillo,34.21725346260006,-119.06555787396223
142,Chipotle Campbell,California,Campbell,37.29088001186664,-121.93205873037397
143,Chipotle Topanga,California,Canoga Park,34.19,-118.60255
144,Chipotle Capitola,California,Capitola,36.97793296544234,-121.96629033430656
145,Chipotle Carlsbad,California,Carlsbad,33.12805531775516,-117.27045117880391
146,Chipotle La Costa Town Square,California,Carlsbad,33.081846051416996,-117.23594035921002
147,Chipotle Southbay Pavilion,California,Carson,33.846571303188675,-118.26345516132488
148,Chipotle Castro Valley,California,Castro Valley,37.69534808292011,-122.07682173834326
149,Chipotle Cerritos College Square,California,Cerritos,33.88592808196876,-118.10201018650821
150,Chipotle Cerritos,California,Cerritos,33.87279148159613,-118.06421767787731
151,Chipotle Los Cerritos,California,Cerritos,33.8619,-118.092552
152,Chipotle Chatsworth,California,Chatsworth,34.23752415197358,-118.58913502915061
153,Chipotle Chico Mall,California,Chico,39.72754269084902,-121.80506296936574
154,Chipotle Chico,California,Chico,39.73437615123794,-121.83515019816491
155,Chipotle Chino,California,Chino,34.03190485597059,-117.69030120491084
156,Chipotle Chino Hills,California,Chino Hills,34.00053846088931,-117.73123922233526
157,Chipotle Eastlake,California,Chula Vista,32.64715651821109,-116.96557457182973
158,Chipotle Chula Vista H Street,California,Chula Vista,32.631538330080154,-117.0880960495063
159,Chipotle Bonita Plaza,California,Chula Vista,32.646182,-117.002625
160,Chipotle Sunrise,California,Citrus Heights,38.67204396033948,-121.27210814264242
161,Chipotle Puente Hills Mall,California,City Of Industry,33.991108667992535,-117.92463514846213
162,Chipotle Claremont Promenade,California,Claremont,34.079562,-117.719517
163,Chipotle Clovis,California,Clovis,36.80816451357602,-119.69365285818361
164,Chipotle Clovis NE,California,Clovis,36.837102806014755,-119.6829132847252
165,Chipotle Colma,California,Colma,37.67119213613535,-122.46439892638864
166,Chipotle Citadel Outlets,California,Commerce,34.005728,-118.152961
167,Chipotle Compton,California,Compton,33.87653521836164,-118.2178387895666
168,Chipotle Todos Santos,California,Concord,37.9767127,-122.0354564
169,Chipotle Concord,California,Concord,37.9369329,-122.0248286
170,Chipotle Corona,California,Corona,33.84761569537094,-117.54381688956664
171,Chipotle Corona Crossings,California,Corona,33.82364130228084,-117.51664473282074
172,Chipotle Harbor Center,California,Costa Mesa,33.65830729835141,-117.91864753016444
173,Chipotle Culver Crossroads,California,Culver City,34.007161815291546,-118.41262312546246
174,Chipotle Culver City Terrace,California,Culver City,33.9854146,-118.3933069
175,Chipotle Fox Hills,California,Culver City,33.98811135886199,-118.39300704814138
176,Chipotle Culver City DT,California,Culver City,34.023283636992964,-118.39435104455231
177,Chipotle Cupertino,California,Cupertino,37.31726503354268,-122.03278998505789
178,Chipotle Cupertino Homestead Square,California,Cupertino,37.337315054598356,-122.03648371994058
179,Chipotle Cypress Center,California,Cypress,33.80372614549295,-118.01252306588651
180,Chipotle Daly City,California,Daly City,37.7014805,-122.48236866
181,Chipotle Danville,California,Danville,37.82315928914039,-122.00409490062907
182,Chipotle E Street,California,Davis,38.54404613509196,-121.74159458965198
183,Chipotle Flower Hill,California,Del Mar,32.9812865943242,-117.24979818185977
184,Chipotle Diamond Bar,California,Diamond Bar,34.02087757522673,-117.81055878105349
185,Chipotle Downey,California,Downey,33.9378076569092,-118.12955238646725
186,Chipotle Promenade at Downey,California,Downey,33.92222904425112,-118.13154774014572
187,Chipotle Dublin Hacienda,California,Dublin,37.70561684178781,-121.89083598834327
188,Chipotle Dublin,California,Dublin,37.706373161666555,-121.92911820179427
189,Chipotle El Cajon East,California,El Cajon,32.79401250323742,-116.93476260142046
190,Chipotle El Cerrito,California,El Cerrito,37.89920809436757,-122.30230887177561
191,Chipotle El Segundo,California,El Segundo,33.9196429750764,-118.39646644508912
192,Chipotle Elk Grove 2,California,Elk Grove,38.40832,-121.449308
193,Chipotle Laguna Pavilion,California,Elk Grove,38.4231808,-121.4155253
194,Chipotle Encinitas,California,Encinitas,33.05221414764947,-117.26155619596022
195,Chipotle East Escondido,California,Escondido,33.130322653305605,-117.06659018800502
196,Chipotle Escondido Promenade,California,Escondido,33.113014851997406,-117.10103903834323
197,Chipotle North County Mall,California,Escondido,33.071038,-117.065973
198,Chipotle Fair Oaks Madison,California,Fair Oaks,38.66156367871051,-121.22605489490638
199,Chipotle Gateway Courtyard,California,Fairfield,38.261633262094044,-122.05847163374688
200,Chipotle Willowcreek,California,Folsom,38.6694922,-121.1559255
201,Chipotle Folsom 2,California,Folsom,38.64500627533872,-121.12336725425826
202,Chipotle South Fontana,California,Fontana,34.06267988328293,-117.43504813347619
203,Chipotle Sierra Lakes,California,Fontana,34.138460305686856,-117.44145879080668
204,Chipotle Foothill Ranch II,California,Foothill Ranch,33.67950658806537,-117.6686818760748
205,Chipotle Bridgepointe,California,Foster City,37.562540203832256,-122.28064386932886
206,Chipotle Brookhurst St,California,Fountain Valley,33.714134,-117.954105
207,Chipotle Fountain Valley,California,Fountain Valley,33.68759248664302,-117.95451643741706
208,Chipotle Fremont,California,Fremont,37.554397790514614,-121.98171172607476
209,Chipotle Fremont Warm Springs,California,Fremont,37.51104648073672,-121.9407045100329
210,Chipotle Pacific Commons,California,Fremont,37.50434624597707,-121.97563680350913
211,Chipotle Manchester Mall,California,Fresno,36.78161964568193,-119.79007662149581
212,Chipotle West Shaw,California,Fresno,36.80942382028508,-119.87181903191185
213,Chipotle Fresno State,California,Fresno,36.8081309228704,-119.75344405147962
214,Chipotle Fig Garden,California,Fresno,36.81108327268125,-119.8080885580822
215,Chipotle Fashion Fair,California,Fresno,36.8065317,-119.7792371
216,Chipotle Riverpark Plaza,California,Fresno,36.852130620865516,-119.78899949694159
217,Chipotle Harbor and Orangethorpe,California,Fullerton,33.859725096408425,-117.92382825257039
218,Chipotle Cal State Fullerton,California,Fullerton,33.874571303771816,-117.89017259877664
219,Chipotle Garden Grove Promenade,California,Garden Grove,33.78884075207645,-117.96322514508915
220,Chipotle Gardena Marketplace,California,Gardena,33.87347234415794,-118.30884125214959
221,Chipotle Gilroy Ca,California,Gilroy,37.00297748618977,-121.55199715368747
222,Chipotle Glendale Galleria,California,Glendale,34.145124,-118.259326
223,Chipotle Glendale CA,California,Glendale,34.14745710452632,-118.24634196073055
224,Chipotle Brand Blvd.,California,Glendale,34.14795064352478,-118.25529353628349
225,Chipotle Glendora,California,Glendora,34.11636408347833,-117.83563471440067
226,Chipotle Rancho Cordova Rivergate,California,Gold River,38.61703934520703,-121.26894929933837
227,Chipotle Goleta,California,Goleta,34.42917694680606,-119.86940571226859
228,Chipotle Granada Hills,California,Granada Hills,34.25774798768706,-118.5020815711813
229,Chipotle Hanford,California,Hanford,36.327476827217744,-119.67329958895493
230,Chipotle Hawthorne,California,Hawthorne,33.90123578697386,-118.37322521000647
231,Chipotle Hemet,California,Hemet,33.74715564751028,-116.99751010828379
232,Chipotle Hermosa Beach,California,Hermosa Beach,33.86533148472044,-118.39348661381166
233,Chipotle Hesperia,California,Hesperia,34.427957,-117.37835
234,Chipotle Beach Blvd.,California,Huntington Beach,33.726848923164056,-117.98969228282067
235,Chipotle Seacliff Village,California,Huntington Beach,33.68070597247496,-118.0043468788187
236,Chipotle Imperial Beach,California,Imperial Beach,32.583602564037996,-117.1154485898486
237,Chipotle Crenshaw Imperial Plaza,California,Inglewood,33.9307059,-118.3255833
238,Chipotle Northpark Plaza,California,Irvine,33.72352160975807,-117.77145642620678
239,Chipotle The Crossroads,California,Irvine,33.68552416345209,-117.81125817954432
240,Chipotle UC Irvine,California,Irvine,33.64954032113868,-117.83907287874547
241,Chipotle Woodbury Town Center,California,Irvine,33.69833318594015,-117.74094540918287
242,Chipotle Irvine Spectrum,California,Irvine,33.65076778673915,-117.74288414416293
243,Chipotle La Canada Town Center,California,La Canada Flintridge,34.2035553021316,-118.19775441532687
244,Chipotle La Habra,California,La Habra,33.916790334759064,-117.95886346154208
245,Chipotle LaJolla Village Square,California,La Jolla,32.865734,-117.232143
246,Chipotle La Mesa,California,La Mesa,32.77361313869,-117.02695971336595
247,Chipotle La Quinta,California,La Quinta,33.710716,-116.2832098
248,Chipotle La Verne Ctr,California,La Verne,34.11205096859536,-117.76224672293085
249,Chipotle Lafayette SF,California,Lafayette,37.89320838385394,-122.1181198687172
250,Chipotle Laguna Niguel,California,Laguna Niguel,33.568050895227415,-117.70855873098566
251,Chipotle Dana Hills,California,Laguna Niguel,33.4926226,-117.6981154
252,Chipotle Lake Forest,California,Lake Forest,33.637965309430356,-117.6806010030881
253,Chipotle The Arbor,California,Lake Forest,33.61882578365792,-117.70345915116064
254,Chipotle Lakewood Mall,California,Lakewood,33.854145981105354,-118.1419423762926
255,Chipotle Lancaster South East,California,Lancaster,34.675201702407804,-118.14738032086677
256,Chipotle Tejon Ranch,California,Lebec,34.98650931128791,-118.94631826994055
257,Chipotle Livermore Outlets,California,Livermore,37.69852147922445,-121.84491555740772
258,Chipotle Livermore,California,Livermore,37.69911086622164,-121.74162527883607
259,Chipotle Lodi,California,Lodi,38.116714,-121.302485
260,Chipotle Long Beach,California,Long Beach,33.79012665654251,-118.1386805582838
261,Chipotle Downtown Long Beach,California,Long Beach,33.770147975849525,-118.19266047015526
262,Chipotle Marina Pacifica,California,Long Beach,33.759875,-118.114835
263,Chipotle Century City,California,Los Angeles,34.058031,-118.419668
264,Chipotle UCLA Bruins,California,Los Angeles,34.061058613094744,-118.44631431715572
265,Chipotle Farmers Market,California,Los Angeles,34.073700332765725,-118.36094683888962
266,Chipotle City West,California,Los Angeles,34.054200666523464,-118.26337541964341
267,Chipotle Brentwood LA,California,Los Angeles,34.05350633181874,-118.46487593252175
268,Chipotle Mar Vista,California,Los Angeles,34.022681490352895,-118.43917967651839
269,Chipotle Sunset & Vine,California,Los Angeles,34.09734687431174,-118.32636564723873
270,Chipotle Echo Park,California,Los Angeles,34.07714537434653,-118.26476045157142
271,Chipotle Larchmont Village,California,Los Angeles,34.07643494986921,-118.32395840740463
272,Chipotle South Park,California,Los Angeles,34.042015,-118.25841
273,Chipotle Koreatown,California,Los Angeles,34.0620432,-118.290865
274,Chipotle USC,California,Los Angeles,34.01695555547079,-118.28258402025506
275,Chipotle Midtown Crossing,California,Los Angeles,34.0481825,-118.33601217
276,Chipotle Eagle Rock,California,Los Angeles,34.138332433303944,-118.2147237946707
277,Chipotle Miracle Mile,California,Los Angeles,34.06211334855455,-118.3501959227192
278,Chipotle Financial District LA,California,Los Angeles,34.04759612692327,-118.25664718579833
279,Chipotle Ladera Heights,California,Los Angeles,33.978884768617974,-118.37066314049281
280,Chipotle Melrose Place,California,Los Angeles,34.08362649308188,-118.3443386895666
281,Chipotle Sunset Boulevard,California,Los Angeles,34.0978471129027,-118.35690521268083
282,Chipotle West Hollywood,California,Los Angeles,34.07313567,-118.37276533
283,Chipotle Los Gatos,California,Los Gatos,37.23535350416661,-121.96365672110028
284,Chipotle Madera,California,Madera,36.97402194121919,-120.08301113121536
285,Chipotle Malibu Village,California,Malibu,34.036158,-118.684829
286,Chipotle Manteca,California,Manteca,37.79631039976567,-121.19301733313455
287,Chipotle Marina,California,Marina,36.66588128255013,-121.80972461674025
288,Chipotle Marina Del Rey,California,Marina Del Rey,33.97915611697115,-118.43830612904065
289,Chipotle Martinez,California,Martinez,37.99476243515115,-122.10585776070695
290,Chipotle Menifee,California,Menifee,33.68456530437326,-117.17496204295696
291,Chipotle Merced II,California,Merced,37.31977990890728,-120.48614440335558
292,Chipotle Millbrae,California,Millbrae,37.59664287481773,-122.38616887789249
293,Chipotle Great Mall of America Bay Area,California,Milpitas,37.415755626922255,-121.89755758631577
294,Chipotle Eastvale,California,Mira Loma,33.97667219672287,-117.55285768220904
295,Chipotle Mission Hills,California,Mission Hills,34.25942,-118.4665907
296,Chipotle Mission Viejo,California,Mission Viejo,33.592456,-117.660366
297,Chipotle Crown Valley,California,Mission Viejo,33.559430658968246,-117.67142648344975
298,Chipotle Shops at Mission Viejo,California,Mission Viejo,33.557985982094955,-117.66898912803913
299,Chipotle Briggsmore Center,California,Modesto,37.670898363220275,-120.9946327764062
300,Chipotle Modesto,California,Modesto,37.68870917570512,-121.05397590868586
301,Chipotle Huntington Oaks,California,Monrovia,34.13980863005088,-118.01247076711644
302,Chipotle Montclair Mall,California,Montclair,34.08735747390883,-117.68910175613422
303,Chipotle Montebello,California,Montebello,34.01898412881839,-118.10597044601536
304,Chipotle Del Monte,California,Monterey,36.58351079602785,-121.89678568496998
305,Chipotle Monterey,California,Monterey,36.59696784159582,-121.89450361394216
306,Chipotle ELA City College,California,Monterey Park,34.03839617176134,-118.14455450980438
307,Chipotle Moreno Valley 2,California,Moreno Valley,33.93697901084461,-117.2618174240078
308,Chipotle Morgan Hill,California,Morgan Hill,37.15120417259024,-121.65604422441993
309,Chipotle El Monte Center,California,Mountain View,37.39065240537739,-122.09440156430867
310,Chipotle Mountain View,California,Mountain View,37.4218453291052,-122.09651837949752
311,Chipotle Murrieta,California,Murrieta,33.5683063848896,-117.20468239847946
312,Chipotle Napa,California,Napa,38.321241481142714,-122.30612309123143
313,Chipotle South Napa,California,Napa,38.28588119085403,-122.27434205735756
314,Chipotle Plaza Bonita Mall,California,National City,32.65457109907627,-117.06550772883605
315,Chipotle National City,California,National City,32.66055955059648,-117.10556562700259
316,Chipotle Newark,California,Newark,37.55115907630892,-122.05144880393186
317,Chipotle The Bluffs,California,Newport Beach,33.63897764137414,-117.8600891346731
318,Chipotle Newport Peninsula,California,Newport Beach,33.6152648852506,-117.93063838245149
319,Chipotle Norco,California,Norco,33.902656,-117.561895
320,Chipotle Victory Plaza,California,North Hollywood,34.18809,-118.41699
321,Chipotle NoHo LA,California,North Hollywood,34.1661600822382,-118.37501567104817
322,Chipotle Nordhoff Plaza,California,Northridge,34.23467601501983,-118.55486370580235
323,Chipotle North Hills,California,Northridge,34.2236510643574,-118.5018123438137
324,Chipotle CS Northridge,California,Northridge,34.23747060221053,-118.53649385798923
325,Chipotle Novato,California,Novato,38.10599116178466,-122.56960896073053
326,Chipotle Oakland Broadway & 30th,California,Oakland,37.81919,-122.262585
327,Chipotle Oakland Lakeshore,California,Oakland,37.810767415996374,-122.24476638808744
328,Chipotle Oakland Hegenberger,California,Oakland,37.73794078618209,-122.19746573745556
329,Chipotle Oceanside,California,Oceanside,33.181893,-117.33164
330,Chipotle Del Oro Marketplace,California,Oceanside,33.205653064520334,-117.28861079569788
331,Chipotle Mission Marketplace,California,Oceanside,33.245213451838396,-117.29050765091336
332,Chipotle The Mills,California,Ontario,34.073101,-117.552031
333,Chipotle West Ontario,California,Ontario,34.03373896280914,-117.62892868773156
334,Chipotle The Village,California,Orange,33.82580291158203,-117.83640855889553
335,Chipotle El Modena,California,Orange,33.787170245544765,-117.8165608815973
336,Chipotle Seabridge,California,Oxnard,34.189702,-119.223031
337,Chipotle Oxnard,California,Oxnard,34.2340367,-119.1786787
338,Chipotle Pacific Palisades,California,Pacific Palisades,34.046596,-118.524413
339,Chipotle Monterey & Dinah Shore,California,Palm Desert,33.801446689642624,-116.38747067484036
340,Chipotle Palm Desert,California,Palm Desert,33.72810751005554,-116.40304972331353
341,Chipotle Palm Springs,California,Palm Springs,33.80077209644914,-116.52167565167815
342,Chipotle Palmdale,California,Palmdale,34.60234325273732,-118.15016453697854
343,Chipotle Stanford Center,California,Palo Alto,37.44481458900919,-122.16927148831822
344,Chipotle Palo Alto,California,Palo Alto,37.42387416998631,-122.14306001409534
345,Chipotle The Plant,California,Panorama City,34.21576549591313,-118.4484124987124
346,Chipotle Paramount,California,Paramount,33.889671705188285,-118.15984994835645
347,Chipotle South Lake,California,Pasadena,34.14161412024798,-118.13191377852155
348,Chipotle East Pas,California,Pasadena,34.151687162182554,-118.08020075602525
349,Chipotle Paso Robles II,California,Paso Robles,35.614783491487046,-120.6833899971
350,Chipotle Perris,California,Perris,33.80745746473947,-117.2265905485969
351,Chipotle Petaluma,California,Petaluma,38.24360598292279,-122.62638934384842
352,Chipotle Pico Rivera,California,Pico Rivera,34.001212777535095,-118.08429593984698
353,Chipotle Pinole,California,Pinole,37.99584488069377,-122.28616963049592
354,Chipotle Delta Gateway,California,Pittsburg,38.005543685158585,-121.83947117605857
355,Chipotle Placerville,California,Placerville,38.71319049321305,-120.84009296658496
356,Chipotle Pleasant Hill Center,California,Pleasant Hill,37.97882255642107,-122.06682087194213
357,Chipotle Pleasant Hill,California,Pleasant Hill,37.9458352,-122.0617206
358,Chipotle Pleasanton,California,Pleasanton,37.6589742,-121.897972
359,Chipotle Pomona,California,Pomona,34.03369167184923,-117.75679611288012
360,Chipotle Poway,California,Poway,32.95490609620121,-117.0389035024939
361,Chipotle Rancho Cordova,California,Rancho Cordova,38.59431543959226,-121.28856367792719
362,Chipotle Rancho Cucamonga,California,Rancho Cucamonga,34.10618342316279,-117.56885958219362
363,Chipotle Ontario Mills,California,Rancho Cucamonga,34.07764976353122,-117.55757129295694
364,Chipotle Victoria Gardens,California,Rancho Cucamonga,34.11030699439223,-117.53548142270182
365,Chipotle Rancho Santa Margarita,California,Rancho Santa Margarita,33.63911453993435,-117.59409620985576
366,Chipotle Redding,California,Redding,40.585336942860884,-122.3540046133121
367,Chipotle Mountain Grove,California,Redlands,34.073994434860715,-117.20505341226846
368,Chipotle Redlands,California,Redlands,34.061169,-117.18282
369,Chipotle Redondo Beach,California,Redondo Beach,33.821682621174155,-118.38514218711987
370,Chipotle Redwood City,California,Redwood City,37.48582585979885,-122.22887095577227
371,Chipotle Rialto,California,Rialto,34.07724446256744,-117.3707390808774
372,Chipotle North Rialto,California,Rialto,34.13477400873257,-117.36932463011198
373,Chipotle Riverbank,California,Riverbank,37.71164400561816,-120.9579370569407
374,Chipotle Tyler Street,California,Riverside,33.90711401311614,-117.4582640656414
375,Chipotle Riverside Plaza,California,Riverside,33.955641,-117.389392
376,Chipotle Van Buren & Trautwein,California,Riverside,33.89025918631179,-117.32418543219165
377,Chipotle Rocklin Commons,California,Rocklin,38.80463574925882,-121.20656128662051
378,Chipotle Rohnert Park,California,Rohnert Park,38.34732644821981,-122.71012806688213
379,Chipotle Rolling Hills Estates,California,Rolling Hills Estates,33.7761393,-118.3757891
380,Chipotle Rosemead Place,California,Rosemead,34.07458922642114,-118.07220788252357
381,Chipotle Creekside,California,Roseville,38.770105437763675,-121.26476193559932
382,Chipotle Granite Bay,California,Roseville,38.74303637962803,-121.227539677001
383,Chipotle Highland Plaza,California,Roseville,38.7895085668169,-121.28090681840268
384,Chipotle Tower District,California,Sacramento,38.5616545,-121.4918286
385,Chipotle Howe & Arden,California,Sacramento,38.59735987605298,-121.41587020828382
386,Chipotle Capitol Mall,California,Sacramento,38.57402706388792,-121.48275713189452
387,Chipotle Loehmann's Plaza,California,Sacramento,38.5756492793364,-121.4033964150297
388,Chipotle Del Paso Marketplace,California,Sacramento,38.65552122159495,-121.52389666887001
389,Chipotle Country Club,California,Sacramento,38.61001551696079,-121.3857316063258
390,Chipotle Natomas,California,Sacramento,38.63867609436161,-121.50498536258294
391,Chipotle Land Park,California,Sacramento,38.53779109558833,-121.49239254447127
392,Chipotle Foothill Farms,California,Sacramento,38.66020923057192,-121.34704147761272
393,Chipotle East Sacramento,California,Sacramento,38.55767840128165,-121.43658029723872
394,Chipotle Sacramento Delta Shores,California,Sacramento,38.46512508228903,-121.49228194156194
395,Chipotle Salinas,California,Salinas,36.71701510032351,-121.65393674938832
396,Chipotle San Bernardino,California,San Bernardino,34.069252980682066,-117.26190170053064
397,Chipotle Tanforan Food Court,California,San Bruno,37.6372041,-122.4172493
398,Chipotle San Carlos,California,San Carlos,37.50220845635966,-122.24637262417463
399,Chipotle San Clemente,California,San Clemente,33.44339123209546,-117.61372755729354
400,Chipotle Downtown San Diego,California,San Diego,32.7150214,-117.1642958
401,Chipotle Mission Valley,California,San Diego,32.76798397845298,-117.15325137913322
402,Chipotle 4S Ranch,California,San Diego,33.02013968053748,-117.11107023715459
403,Chipotle Carmel Mountain,California,San Diego,32.97977174791824,-117.08269000307575
404,Chipotle Pacific Beach,California,San Diego,32.79971538531029,-117.24262253617752
405,Chipotle Miramar Air Station USMC,California,San Diego,32.887799,-117.131412
406,Chipotle Grosvenor Square,California,San Diego,32.75119540858461,-117.20560606468263
407,Chipotle Carmel Valley,California,San Diego,32.93772358950651,-117.23012450267805
408,Chipotle Aztec Student Center,California,San Diego,32.773947,-117.070094
409,Chipotle Genesee Plaza,California,San Diego,32.820499457084594,-117.17898082729818
410,Chipotle Campus Plaza,California,San Diego,32.76128861846487,-117.0666150433999
411,Chipotle Kearny Mesa,California,San Diego,32.831583765641234,-117.16460263069126
412,Chipotle Hillcrest,California,San Diego,32.74865863390252,-117.1577837220492
413,Chipotle Mira Mesa,California,San Diego,32.9137603,-117.1458472
414,Chipotle UTC,California,San Diego,32.8695554,-117.2154937
415,Chipotle San Fernando,California,San Fernando,34.28358071628897,-118.44139870118244
416,Chipotle Metreon,California,San Francisco,37.78430291464379,-122.40361731532687
417,Chipotle Art College,California,San Francisco,37.78699294472428,-122.40026600967394
418,Chipotle Lakeshore Plaza,California,San Francisco,37.73245288257204,-122.48998301707604
419,Chipotle Sutter and Kearney,California,San Francisco,37.789664331076416,-122.40411705123051
420,Chipotle Union Square,California,San Francisco,37.78652270729756,-122.40859257748355
421,Chipotle SF Geary & Masonic,California,San Francisco,37.78205287353228,-122.44653641055487
422,Chipotle Stonestown Galleria,California,San Francisco,37.727644514306014,-122.47665796678626
423,Chipotle Fishermans Wharf SF,California,San Francisco,37.807770027641595,-122.41788928619366
424,Chipotle SF 400 Howard Street,California,San Francisco,37.78888749680673,-122.39612574945147
425,Chipotle 50 California,California,San Francisco,37.79416349012601,-122.39740943536799
426,Chipotle 525 Market Street,California,San Francisco,37.79046409288761,-122.39929950399244
427,Chipotle San Francisco Centre,California,San Francisco,37.78413352073621,-122.40694442249372
428,Chipotle San Jose One South Market,California,San Jose,37.33502373179572,-121.89259345360108
429,Chipotle Brokaw North,California,San Jose,37.3830937935385,-121.89675409783308
430,Chipotle Almaden,California,San Jose,37.24983173034003,-121.87634604181227
431,Chipotle San Jose Sun Garden,California,San Jose,37.314442,-121.871406
432,Chipotle Westgate Mall,California,San Jose,37.29292404334293,-121.99117377852156
433,Chipotle San Jose Airport,California,San Jose,37.370808449590186,-121.9169685323746
434,Chipotle Camden Park,California,San Jose,37.262196276218305,-121.93178962662427
435,Chipotle Valley Fair Mall,California,San Jose,37.32615899084708,-121.94394082015276
436,Chipotle Evergreen,California,San Jose,37.331142,-121.8120253
437,Chipotle McKee and N. Capitol Ave.,California,San Jose,37.3711472221808,-121.84490282047204
438,Chipotle Winchester Blvd,California,San Jose,37.321716266020005,-121.95055006271474
439,Chipotle At First,California,San Jose,37.41619674239623,-121.95498650248129
440,Chipotle Coleman Landings,California,San Jose,37.35056948645938,-121.92226096511115
441,Chipotle San Jose Village Oaks,California,San Jose,37.24865130878421,-121.80287968553824
442,Chipotle Oakridge Mall,California,San Jose,37.251263257341,-121.8623012207969
443,Chipotle The Alameda,California,San Jose,37.331906817882945,-121.90865991226781
444,Chipotle San Leandro,California,San Leandro,37.72336091000679,-122.15393846504054
445,Chipotle Madonna Plaza,California,San Luis Obispo,35.26261463509377,-120.6776980849703
446,Chipotle San Marcos Creekside,California,San Marcos,33.137033,-117.17627
447,Chipotle Bay Meadows,California,San Mateo,37.544695792603406,-122.29149198277469
448,Chipotle San Pedro Heights,California,San Pedro,33.751044,-118.307344
449,Chipotle San Rafael Montecito Plaza,California,San Rafael,37.96956572128692,-122.5167520404928
450,Chipotle San Rafael,California,San Rafael,38.0042166,-122.544202
451,Chipotle San Ramon,California,San Ramon,37.775151705046845,-121.97801796374807
452,Chipotle Sand City II,California,Sand City,36.62262582038521,-121.84366126380633
453,Chipotle Santa Ana College,California,Santa Ana,33.76036780466999,-117.88610817392521
454,Chipotle MainPlace Mall,California,Santa Ana,33.77336674902728,-117.86701247985775
455,Chipotle Bristol Center,California,Santa Ana,33.69835440817147,-117.88499861869985
456,Chipotle Santa Ana,California,Santa Ana,33.73867472818457,-117.91965691960246
457,Chipotle La Cumbre,California,Santa Barbara,34.439503969029175,-119.749159864462
458,Chipotle Santa Clara,California,Santa Clara,37.3520525,-121.9602887
459,Chipotle Santa Clara Square,California,Santa Clara,37.3808198,-121.9746213
460,Chipotle Rivermark,California,Santa Clara,37.39480489533197,-121.946407394792
461,Chipotle Golden Valley Ranch,California,Santa Clarita,34.394496758831735,-118.46282056470119
462,Chipotle Santa Cruz III,California,Santa Cruz,36.98261371947986,-122.02936357270187
463,Chipotle Santa Maria,California,Santa Maria,34.92132229700554,-120.43301217177566
464,Chipotle Santa Monica,California,Santa Monica,34.017694847287615,-118.49898555066977
465,Chipotle Santa Monica Mid City,California,Santa Monica,34.031985802324826,-118.48289062822437
466,Chipotle Santa Rosa Marketplace,California,Santa Rosa,38.417914,-122.712384
467,Chipotle Santa Rosa Coddingtown,California,Santa Rosa,38.458189,-122.730058
468,Chipotle Santee,California,Santee,32.84094168295178,-116.98145925799042
469,Chipotle Rossmoor,California,Seal Beach,33.782980697390315,-118.07234152637193
470,Chipotle Selma,California,Selma,36.5770809467151,-119.63236487017957
471,Chipotle Fashion Square Mall,California,Sherman Oaks,34.15689573677,-118.43730050360801
472,Chipotle Sherman Oaks,California,Sherman Oaks,34.151430167049824,-118.45372274664442
473,Chipotle Signal Hill,California,Signal Hill,33.8119251213897,-118.18127129861409
474,Chipotle Simi Valley,California,Simi Valley,34.28415480521016,-118.77535695629956
475,Chipotle Azalea South Gate,California,South Gate,33.952512,-118.1856175
476,Chipotle Park West Stockton,California,Stockton,38.054047,-121.374767
477,Chipotle Weberstown,California,Stockton,37.9946689016608,-121.3134374044431
478,Chipotle Studio City,California,Studio City,34.14355872066686,-118.3977093037214
479,Chipotle Cherry Orchard,California,Sunnyvale,37.367728098780866,-122.03615574021205
480,Chipotle Tarzana,California,Tarzana,34.1703355,-118.5410493
481,Chipotle Temecula,California,Temecula,33.52408850756488,-117.15898745674133
482,Chipotle Red Hawk,California,Temecula,33.4809812683985,-117.09695558341605
483,Chipotle Temple City,California,Temple City,34.1046359513651,-118.07389619479198
484,Chipotle Thousand Oaks,California,Thousand Oaks,34.1820459658838,-118.88495811319467
485,Chipotle Newbury Park,California,Thousand Oaks,34.191161891893024,-118.93766426001241
486,Chipotle Del Amo,California,Torrance,33.834988127866936,-118.35280468949355
487,Chipotle Torrance Crossroads,California,Torrance,33.8018953,-118.3287984
488,Chipotle Del Amo Dining Terrace,California,Torrance,33.83295,-118.349293
489,Chipotle Tracy,California,Tracy,37.75546914528877,-121.46494850107536
490,Chipotle Tulare,California,Tulare,36.22621558670599,-119.3289380460501
491,Chipotle Turlock,California,Turlock,37.520645,-120.880929
492,Chipotle Tustin,California,Tustin,33.74511975475779,-117.8146216464283
493,Chipotle Tustin Legacy,California,Tustin,33.712719,-117.817008
494,Chipotle Ukiah,California,Ukiah,39.15164538001051,-123.19935967361067
495,Chipotle Union City,California,Union City,37.60245939031628,-122.06906675183507
496,Chipotle Colonies Crossroads,California,Upland,34.13235746297344,-117.63666496810549
497,Chipotle Upland,California,Upland,34.108382301763804,-117.66990272822437
498,Chipotle Vacaville Nut Tree,California,Vacaville,38.36690410069812,-121.96241685072005
499,Chipotle Valencia Towne Center,California,Valencia,34.41791932165203,-118.56143095337296
500,Chipotle Valencia,California,Valencia,34.44265729728954,-118.57377455752419
501,Chipotle Vallejo,California,Vallejo,38.1369577435362,-122.2150147826651
502,Chipotle Valley Glen,California,Van Nuys,34.17231389842011,-118.44830875031454
503,Chipotle Paradise Center,California,Ventura,34.264407012492484,-119.21258497340176
504,Chipotle Ventura,California,Ventura,34.26674003395353,-119.2460874911045
505,Chipotle Visalia,California,Visalia,36.29236398834468,-119.31439473346643
506,Chipotle Vista Village,California,Vista,33.200884,-117.244767
507,Chipotle Walnut,California,Walnut,34.027889767641526,-117.8338552181055
508,Chipotle Walnut Creek,California,Walnut Creek,37.8955978,-122.0611396
509,Chipotle Huntington Park,California,Walnut Park,33.9744431419157,-118.23350551717931
510,Chipotle The Curve,California,West Covina,34.0730989,-117.8821127
511,Chipotle West Covina,California,West Covina,34.071046594300775,-117.9327844418251
512,Chipotle West Sacramento,California,West Sacramento,38.59004108927359,-121.54966721860711
513,Chipotle Westlake Village,California,Westlake Village,34.15371791770557,-118.79654041226877
514,Chipotle Westminster,California,Westminster,33.759404167070336,-118.00757723282072
515,Chipotle Santa Fe Springs,California,Whittier,33.941058210661204,-118.04621113497029
516,Chipotle Whittier,California,Whittier,33.94439989978713,-117.9948264484621
517,Chipotle Woodland Hills,California,Woodland Hills,34.16982121134922,-118.60528527244793
518,Chipotle Warner Center,California,Woodland Hills,34.187767500856566,-118.59791897265188
519,Chipotle Yuba City,California,Yuba City,39.14265330346745,-121.6297385638926
520,Chipotle 64th Ave. & Ward Rd.,Colorado,Arvada,39.81138704861359,-105.13967820960727
521,Chipotle 55th & Wads RELO,Colorado,Arvada,39.79394227375821,-105.08027198374691
522,Chipotle 88th & Wadsworth,Colorado,Arvada,39.85612606572959,-105.08244000828381
523,Chipotle Havana,Colorado,Aurora,39.69457177229466,-104.8662978604334
524,Chipotle Fitzsimons,Colorado,Aurora,39.739898551963535,-104.82777096440066
525,Chipotle Iliff & Chambers,Colorado,Aurora,39.67436520279655,-104.81065555398465
526,Chipotle London Square Relo,Colorado,Aurora,39.67438166315028,-104.86959673094157
527,Chipotle Southlands,Colorado,Aurora,39.6042845,-104.7074451
528,Chipotle I 70 & Tower,Colorado,Aurora,39.76402984439589,-104.77470535421776
529,Chipotle Buckley & Quincy,Colorado,Aurora,39.64020420778057,-104.79204735446893
530,Chipotle Arapahoe & Parker,Colorado,Aurora,39.59452341563532,-104.80637262864582
531,Chipotle 29th Street,Colorado,Boulder,40.01652978308289,-105.25789239922813
532,Chipotle Boulder,Colorado,Boulder,40.017374992177366,-105.28339114106359
533,Chipotle Castle Rock Shoppes,Colorado,Castle Rock,39.41447192362294,-104.86400426898177
534,Chipotle Centennial,Colorado,Centennial,39.59543648274558,-104.84878740643137
535,Chipotle Smoky Hill,Colorado,Centennial,39.611241369091566,-104.75260376408829
536,Chipotle Park Meadows Relo,Colorado,Centennial,39.56723688545382,-104.88050550398464
537,Chipotle Garden of the Gods,Colorado,Colorado Springs,38.89705693862437,-104.85264341264832
538,Chipotle Tejon,Colorado,Colorado Springs,38.833100878161346,-104.82310091436597
539,Chipotle Broadmoor,Colorado,Colorado Springs,38.801806979117345,-104.81914475674591
540,Chipotle Powers,Colorado,Colorado Springs,38.87706800791987,-104.71876095461369
541,Chipotle FlyingDog,Colorado,Colorado Springs,38.904331974959575,-104.77416895595184
542,Chipotle CS Univ Village,Colorado,Colorado Springs,38.90253350713101,-104.81810723064962
543,Chipotle Chapel Hills,Colorado,Colorado Springs,38.94636373455528,-104.80229773007682
544,Chipotle Citadel,Colorado,Colorado Springs,38.845449020855405,-104.75657311532689
545,Chipotle Commerce City,Colorado,Commerce City,39.804007450899896,-104.93082754723872
546,Chipotle Cherry Creek,Colorado,Denver,39.71855993156765,-104.94956138220903
547,Chipotle LODO,Colorado,Denver,39.75019553674283,-104.99920669863127
548,Chipotle California,Colorado,Denver,39.74538157729719,-104.9916039656581
549,Chipotle Evans,Colorado,Denver,39.67828797290773,-104.96780777696745
550,Chipotle Lowenstein Theatre,Colorado,Denver,39.739954962720255,-104.95722691840268
551,Chipotle U Hills,Colorado,Denver,39.66641697071331,-104.93988694049278
552,Chipotle Lowell,Colorado,Denver,39.76198306036484,-105.03484099047398
553,Chipotle Alameda,Colorado,Denver,39.71150569725132,-104.98309278771421
554,Chipotle 45th & Peoria,Colorado,Denver,39.777666447814596,-104.84643275090889
555,Chipotle 6th & Broadway,Colorado,Denver,39.7254866850594,-104.98701717881352
556,Chipotle Tiffany,Colorado,Denver,39.652405,-104.9032
557,Chipotle Stapleton,Colorado,Denver,39.75785136019702,-104.9015615788361
558,Chipotle Colorado,Colorado,Denver,39.728314327154855,-104.94099338871558
559,Chipotle Bow Mar,Colorado,Denver,39.616552700889024,-105.09044221010481
560,Chipotle Monaco,Colorado,Denver,39.70179929627504,-104.9124563696248
561,Chipotle Hampden,Colorado,Englewood,39.65358492458045,-104.99242666258294
562,Chipotle 104th & Federal,Colorado,Federal Heights,39.88426668267913,-105.02461434062457
563,Chipotle Ft Collins,Colorado,Fort Collins,40.523776961622914,-105.03682653305447
564,Chipotle CSU,Colorado,Fort Collins,40.578301318114626,-105.07743296562819
565,Chipotle Grand Junction,Colorado,Grand Junction,39.08365,-108.58782
566,Chipotle U of N. Colorado,Colorado,Greeley,40.41203572235011,-104.69148192212145
567,Chipotle Arapahoe Relo,Colorado,Greenwood Village,39.596838857288965,-104.8880827712095
568,Chipotle Belleview Promenade,Colorado,Greenwood Village,39.623731229303054,-104.89606705286792
569,Chipotle Wildcat,Colorado,Highlands Ranch,39.537149,-105.013862
570,Chipotle Lafayette Crossings,Colorado,Lafayette,39.98638566440582,-105.09794396611215
571,Chipotle Colorado Mills,Colorado,Lakewood,39.73410047023791,-105.15997528857099
572,Chipotle Union Relo,Colorado,Lakewood,39.71746050491897,-105.1336252505962
573,Chipotle Wadsworth & Hampden,Colorado,Lakewood,39.660728354367535,-105.080897562583
574,Chipotle Alameda & Wadsworth,Colorado,Lakewood,39.7102963661781,-105.08214599999997
575,Chipotle Colfax,Colorado,Lakewood,39.740561096559325,-105.07830536467429
576,Chipotle Ken Caryl,Colorado,Littleton,39.58031768885037,-105.13499231987998
577,Chipotle Littleton,Colorado,Littleton,39.61343789917304,-104.9883932901783
578,Chipotle Dry Creek,Colorado,Littleton,39.580206500000024,-104.96132583374691
579,Chipotle Southwest Plaza FC,Colorado,Littleton,39.61190845208597,-105.09567326694184
580,Chipotle Park Meadows Mall Food Court,Colorado,Lone Tree,39.56249,-104.874908
581,Chipotle Lone Tree,Colorado,Lone Tree,39.53712395324733,-104.87947276119417
582,Chipotle Longmont,Colorado,Longmont,40.152831349490235,-105.11109899938833
583,Chipotle 17th & Main,Colorado,Longmont,40.189207,-105.101803
584,Chipotle Louisville,Colorado,Louisville,39.96621596945101,-105.16397033843793
585,Chipotle Taft,Colorado,Loveland,40.407525881391514,-105.09786383988114
586,Chipotle Loveland Factory Shops,Colorado,Loveland,40.40855831435636,-105.00775054198982
587,Chipotle Crown Point,Colorado,Parker,39.55725407780165,-104.77792477055226
588,Chipotle Parker,Colorado,Parker,39.51869503455084,-104.77040223558197
589,Chipotle Pueblo,Colorado,Pueblo,38.303292,-104.614979
590,Chipotle Silverthorne,Colorado,Silverthorne,39.630287419244226,-106.07142220468808
591,Chipotle Lambertson Lakes,Colorado,Thornton,39.871176873235825,-104.97624578605593
592,Chipotle Thornton,Colorado,Thornton,39.91436710001901,-104.97505228674999
593,Chipotle Orchard Town Center,Colorado,Westminster,39.95919,-104.99359
594,Chipotle Sheridan,Colorado,Westminster,39.912141,-105.051381
595,Chipotle Youngfield,Colorado,Wheat Ridge,39.76299604016307,-105.14005551560047
596,Chipotle Branford,Connecticut,Branford,41.27731142213908,-72.8283174214896
597,Chipotle Bridgeport Steelpointe,Connecticut,Bridgeport,41.17842823720663,-73.18194729049281
598,Chipotle Shoppes at Farmington Valley,Connecticut,Canton,41.82332322507213,-72.88322699772891
599,"Chipotle Danbury, Mill Plain Road",Connecticut,Danbury,41.392482182817886,-73.52250704264242
600,Chipotle Danbury Fair Mall,Connecticut,Danbury,41.380326,-73.47943
601,Chipotle I95 NB Darien,Connecticut,Darien,41.080583,-73.461254
602,Chipotle Darien CT,Connecticut,Darien,41.09095263406827,-73.45564055398461
603,Chipotle Enfield,Connecticut,Enfield,41.99055716434799,-72.58473316774234
604,Chipotle Fairfield CT,Connecticut,Fairfield,41.15703885362666,-73.24059272118132
605,Chipotle Glastonbury,Connecticut,Glastonbury,41.72037395884164,-72.62096590339257
606,Chipotle Hamden,Connecticut,Hamden,41.36887694048814,-72.91832853559936
607,Chipotle Buckland Hills,Connecticut,Manchester,41.81280599999999,-72.52711699999999
608,Chipotle Middletown CT,Connecticut,Middletown,41.55468,-72.67984
609,Chipotle Connecticut Post Mall,Connecticut,Milford,41.23845336526143,-73.03542477607482
610,Chipotle Yale,Connecticut,New Haven,41.30639517209296,-72.92693399222446
611,Chipotle Newington Gateway,Connecticut,Newington,41.650066,-72.729361
612,Chipotle Riverside Commons,Connecticut,Riverside,41.04242180892854,-73.57832704834891
613,Chipotle Shelton,Connecticut,Shelton,41.27588197554277,-73.12399875520805
614,Chipotle Southington,Connecticut,Southington,41.638016010142024,-72.87337302481967
615,Chipotle Wallingford,Connecticut,Wallingford,41.497039,-72.806854
616,Chipotle Corbins Corner,Connecticut,West Hartford,41.72472959416484,-72.75709768217337
617,Chipotle West Hartford,Connecticut,West Hartford,41.76188938686709,-72.74307215985726
618,"Chipotle West Haven, I95",Connecticut,West Haven,41.27118782688273,-72.97258820765478
619,Chipotle Wethersfield,Connecticut,Wethersfield,41.69268358085449,-72.65518356501957
620,Chipotle Dover DE,Delaware,Dover,39.18678446887631,-75.53655817470087
621,Chipotle Middletown DE,Delaware,Middletown,39.44580632021666,-75.73467347927613
622,Chipotle New Castle Delaware,Delaware,New Castle,39.66378445341222,-75.60687249570083
623,Chipotle Christiana Mall,Delaware,Newark,39.677884,-75.652284
624,Chipotle Univ of Delaware,Delaware,Newark,39.68377823512398,-75.74772734634695
625,Chipotle Churchmans Road,Delaware,Newark,39.68767491052315,-75.65245348614371
626,Chipotle Rehoboth,Delaware,Rehoboth Beach,38.717843,-75.111239
627,Chipotle Kirkwood Highway,Delaware,Wilmington,39.73293717615314,-75.63955922368905
628,Chipotle Altamonte,Florida,Altamonte Springs,28.661298307235594,-81.39668856209812
629,Chipotle Apopka - Wekiva,Florida,Apopka,28.673551495033866,-81.46992335735763
630,Chipotle Aventura,Florida,Aventura,25.95018503822516,-80.14567645491081
631,Chipotle East Boca Raton,Florida,Boca Raton,26.365541610858394,-80.07898699171113
632,Chipotle Central Boca Raton,Florida,Boca Raton,26.368827400578603,-80.1280500709588
633,Chipotle North Boca Raton,Florida,Boca Raton,26.400853,-80.120509
634,Chipotle Garden Shops Boca Raton,Florida,Boca Raton,26.349511355304283,-80.15744495676324
635,Chipotle Westwinds West Boca,Florida,Boca Raton,26.366093,-80.20238
636,Chipotle Boynton Beach,Florida,Boynton Beach,26.54267805290833,-80.09021870117033
637,Chipotle West Boynton Beach,Florida,Boynton Beach,26.5272244006721,-80.18612640244675
638,Chipotle Bradenton,Florida,Bradenton,27.463184540263185,-82.57834493108192
639,Chipotle Brandon Town Center,Florida,Brandon,27.938747769594823,-82.32362885613423
640,Chipotle Brandon Mall Food Court,Florida,Brandon,27.932463,-82.326069
641,Chipotle Brandon-Bloomingdale Avenue,Florida,Brandon,27.89315296173319,-82.27232598834325
642,Chipotle Spring Hill,Florida,Brooksville,28.53437690982307,-82.50659652729814
643,Chipotle Cape Coral Marketplace,Florida,Cape Coral,26.672886267256903,-81.92853450273395
644,Chipotle Cape Coral Del Prado,Florida,Cape Coral,26.610982702781204,-81.94054500320021
645,Chipotle Countryside,Florida,Clearwater,28.014677340939595,-82.73444402941567
646,Chipotle Clearwater Mall,Florida,Clearwater,27.961145358138484,-82.72752726149133
647,Chipotle East Largo,Florida,Clearwater,27.916835974551216,-82.73144484171621
648,Chipotle Clermont,Florida,Clermont,28.545698702412185,-81.73009849431196
649,Chipotle Coral Springs,Florida,Coral Springs,26.252865595198625,-80.25231916791012
650,Chipotle Turtle Run at Coral Springs,Florida,Coral Springs,26.283486,-80.202631
651,Chipotle North Coral Springs,Florida,Coral Springs,26.287405083112233,-80.25114049942306
652,Chipotle Point Royale Cutler Bay,Florida,Cutler Bay,25.589673366046544,-80.35863462852154
653,Chipotle East Hollywood,Florida,Dania Beach,26.04869664021097,-80.15950361620679
654,Chipotle Davie Tower Shops,Florida,Davie,26.094269,-80.250265
655,Chipotle Davie South,Florida,Davie,26.047042315061336,-80.2510542978095
656,Chipotle LPGA Daytona,Florida,Daytona Beach,29.2188702,-81.0970811
657,Chipotle Daytona Beach,Florida,Daytona Beach,29.180827495312798,-81.08063715580238
658,Chipotle Deerfield Beach,Florida,Deerfield Beach,26.30708740220849,-80.09320808252357
659,Chipotle Deland,Florida,Deland,28.98715320455541,-81.29931060508511
660,Chipotle Delray Beach,Florida,Delray Beach,26.43919398983961,-80.07845578886025
661,Chipotle Destin Commons,Florida,Destin,30.3899771,-86.4249352
662,Chipotle Doral 87th Avenue,Florida,Doral,25.79345512047798,-80.33768017337945
663,Chipotle Shoppes at Coconut Point,Florida,Estero,26.403546,-81.811326
664,Chipotle Casselberry,Florida,Fern Park,28.659664072586867,-81.34078245005861
665,Chipotle Fort Lauderdale South,Florida,Fort Lauderdale,26.10086692868112,-80.1266671895666
666,Chipotle Bal Harbour Square Fort Lauderdale,Florida,Fort Lauderdale,26.150564531527802,-80.11888650267343
667,Chipotle Riverbend Fort Lauderdale,Florida,Fort Lauderdale,26.121287762235482,-80.17647565884374
668,Chipotle Fort Lauderdale North,Florida,Fort Lauderdale,26.18776079655633,-80.11555793005942
669,Chipotle Gulf Coast Fort Myers,Florida,Fort Myers,26.491833852496008,-81.78677409014574
670,Chipotle College & 41 Fort Myers,Florida,Fort Myers,26.5586902,-81.87115399999999
671,Chipotle Colonial & 75 Fort Myers,Florida,Fort Myers,26.608337734485225,-81.81053723002685
672,Chipotle Cypress Creek,Florida,Ft Lauderdale,26.204786342170173,-80.14741756625307
673,Chipotle U of Florida,Florida,Gainesville,29.652292261963808,-82.34149667607767
674,Chipotle North Gainesville,Florida,Gainesville,29.67364120397084,-82.33867029289968
675,Chipotle Archer Road,Florida,Gainesville,29.619406292195045,-82.38130672684525
676,Chipotle Greenacres,Florida,Greenacres,26.648235577414606,-80.14615552532428
677,Chipotle Miami Gardens,Florida,Hialeah,25.941268349053956,-80.30643628822202
678,Chipotle Hialeah 2,Florida,Hialeah,25.867047,-80.29195
679,Chipotle Hialeah Gardens,Florida,Hialeah,25.89481690606795,-80.35074015027618
680,Chipotle Dania Beach,Florida,Hollywood,26.033056115486787,-80.1420688426424
681,Chipotle Homestead,Florida,Homestead,25.479008795929524,-80.44192050166987
682,Chipotle Mandarin Riverplace,Florida,Jacksonville,30.173556268870147,-81.62783786026853
683,Chipotle Beach and Hodges,Florida,Jacksonville,30.28711282555381,-81.46036844536275
684,Chipotle Bartram Park,Florida,Jacksonville,30.14131050942163,-81.54639779028463
685,Chipotle Markets at Town Center,Florida,Jacksonville,30.25457633622738,-81.53278940693895
686,Chipotle River City Pointe Place,Florida,Jacksonville,30.481429584970787,-81.63747585920999
687,Chipotle Orange Park,Florida,Jacksonville,30.19387122314084,-81.7384554919405
688,Chipotle Regency Jacksonville,Florida,Jacksonville,30.319365276105458,-81.55489914239513
689,Chipotle Jacksonville Beach,Florida,Jacksonville Beach,30.271247042298853,-81.38887430491081
690,Chipotle Jupiter,Florida,Jupiter,26.93422373810846,-80.1306198341141
691,Chipotle Kissimmee,Florida,Kissimmee,28.345580340826608,-81.42075173497028
692,Chipotle Osceola Parkway Kissimmee,Florida,Kissimmee,28.346371,-81.486212
693,Chipotle Celebration,Florida,Kissimmee,28.3321649,-81.5327309
694,Chipotle Lake Mary #2,Florida,Lake Mary,28.755673212555635,-81.35075833804609
695,Chipotle Lantana & Jog,Florida,Lake Worth,26.5876012,-80.14852789999999
696,Chipotle South Lakeland,Florida,Lakeland,28.001671375003713,-81.95652422280466
697,Chipotle North Lakeland,Florida,Lakeland,28.0957363,-81.9746154
698,Chipotle Lakewood Ranch,Florida,Lakewood Ranch,27.4321292,-82.42110339999999
699,Chipotle Largo Ulmerton Road,Florida,Largo,27.89409106603983,-82.7800365909149
700,Chipotle Lauderhill,Florida,Lauderhill,26.191549305741724,-80.25268509264242
701,Chipotle Wesley Chapel,Florida,Lutz,28.1933432,-82.3954687
702,Chipotle Melbourne,Florida,Melbourne,28.078395002133185,-80.64752089079002
703,Chipotle Viera,Florida,Melbourne,28.23914143969696,-80.72848018019351
704,Chipotle Fountain Square,Florida,Miami,25.769191663965273,-80.35978929447748
705,Chipotle West Kendall,Florida,Miami,25.68454606063215,-80.41519647462161
706,Chipotle Aventura Mall Food Court,Florida,Miami,25.9580522,-80.1421209
707,Chipotle Coral Way - Westchester,Florida,Miami,25.749186841696304,-80.33610395455389
708,Chipotle Coral Gables,Florida,Miami,25.74931218650068,-80.25426375305847
709,Chipotle Airport West,Florida,Miami,25.80882356127241,-80.31533221824446
710,Chipotle Miami Lakes,Florida,Miami Lakes,25.912861175343583,-80.33091748189452
711,Chipotle Miramar,Florida,Miramar,25.98021333798026,-80.35695227086677
712,Chipotle Mount Dora,Florida,Mount Dora,28.8247207707714,-81.6407336110451
713,Chipotle Naples Plaza,Florida,Naples,26.172277314703667,-81.80079516322962
714,Chipotle South Naples,Florida,Naples,26.065774,-81.698679
715,Chipotle Naples Mercato,Florida,Naples,26.2540150779146,-81.80010959109882
716,Chipotle North Miami FL,Florida,North Miami,25.912530237601935,-80.15779178613366
717,Chipotle North Port,Florida,North Port,27.0373333139289,-82.21619476901435
718,Chipotle Ocala 2,Florida,Ocala,29.16710004882106,-82.16838951135895
719,Chipotle Ocoee,Florida,Ocoee,28.55248571259458,-81.52695894995907
720,Chipotle Vineland Pointe,Florida,Orlando,28.3933146,-81.4864466
721,Chipotle U of Central Florida,Florida,Orlando,28.59717445040509,-81.21645094811504
722,Chipotle Lake Nona,Florida,Orlando,28.38689282654763,-81.24501851719663
723,Chipotle Southchase,Florida,Orlando,28.38128403447653,-81.40509368191186
724,Chipotle Florida Mall,Florida,Orlando,28.4496456,-81.4020285
725,Chipotle South Orange,Florida,Orlando,28.51678229370115,-81.37613156258294
726,Chipotle Azalea Park,Florida,Orlando,28.514208097751705,-81.31064161049198
727,Chipotle Metrowest,Florida,Orlando,28.51208482493836,-81.4597723001491
728,Chipotle East Colonial,Florida,Orlando,28.553566990264947,-81.34702351810552
729,Chipotle Millenia Mall Orlando,Florida,Orlando,28.485121590250447,-81.43154115211485
730,Chipotle Waterford Lakes,Florida,Orlando,28.553526489276155,-81.20656532479461
731,Chipotle Millenia Boulevard,Florida,Orlando,28.4929773,-81.4286527
732,Chipotle Orlando Airport,Florida,Orlando,28.46763233493153,-81.3085262453863
733,Chipotle Dr. Phillips Marketplace,Florida,Orlando,28.450598116327527,-81.48896473246526
734,Chipotle Orlando Airport Term 2 FC,Florida,Orlando,28.435468,-81.301371
735,Chipotle Ormond Beach,Florida,Ormond Beach,29.26379913634666,-81.10531615000002
736,Chipotle Oviedo,Florida,Oviedo,28.6563537626573,-81.20337892270186
737,Chipotle The Gardens Mall,Florida,Palm Beach Gardens,26.849044763406756,-80.0851510208301
738,Chipotle Palm Beach Gardens,Florida,Palm Beach Gardens,26.8387669503795,-80.10890162055227
739,Chipotle Palm Coast,Florida,Palm Coast,29.476297900686486,-81.19619296519619
740,Chipotle Coral Landing Palm Harbor,Florida,Palm Harbor,28.07317466907305,-82.73829771905821
741,Chipotle Panama City,Florida,Panama City,30.1889939,-85.6538631
742,Chipotle Pier Park,Florida,Panama City Beach,30.223829283130893,-85.87224113988111
743,Chipotle Pembroke Pines,Florida,Pembroke Pines,26.00845191536144,-80.29500487577764
744,Chipotle West Pembroke Pines,Florida,Pembroke Pines,26.00678298241768,-80.35630208374687
745,Chipotle Pinecrest,Florida,Pinecrest,25.657060492333493,-80.32749741359396
746,Chipotle Parkside Mall,Florida,Pinellas Park,27.838771062640056,-82.68466530022113
747,Chipotle Sawgrass Ikea,Florida,Plantation,26.12151288234434,-80.33068840393469
748,Chipotle Sunrise and University,Florida,Plantation,26.147191,-80.256386
749,Chipotle Pompano,Florida,Pompano Beach,26.260656561863833,-80.0989099277374
750,Chipotle Port Orange Gateway Center,Florida,Port Orange,29.111368109173387,-81.02645685337296
751,Chipotle Port Richey,Florida,Port Richey,28.290810588979053,-82.7119125003145
752,Chipotle St. Lucie West,Florida,Port Saint Lucie,27.31065261994452,-80.4064213527613
753,Chipotle St. Augustine,Florida,Saint Augustine,29.869607545074707,-81.3238950019371
754,Chipotle St. Cloud FL,Florida,Saint Cloud,28.252543735911708,-81.31628410921002
755,Chipotle Tyrone,Florida,Saint Petersburg,27.78555672481624,-82.72892201989964
756,Chipotle North St Pete,Florida,Saint Petersburg,27.804670053176856,-82.63883005352375
757,Chipotle 4th Street,Florida,Saint Petersburg,27.780081704177878,-82.63874342607483
758,Chipotle Sanford,Florida,Sanford,28.800081390859006,-81.33360532729819
759,Chipotle Sarasota,Florida,Sarasota,27.318109777692243,-82.5293882018351
760,Chipotle Sarasota Towne Center,Florida,Sarasota,27.337224,-82.463164
761,Chipotle University Town Center Sarasota,Florida,Sarasota,27.387687815869644,-82.45813989871294
762,Chipotle Seminole City Center,Florida,Seminole,27.841610023777374,-82.79448579599801
763,Chipotle South Miami,Florida,South Miami,25.699524794387173,-80.2950114926424
764,Chipotle Stuart Center North,Florida,Stuart,27.177970512677273,-80.23606648050571
765,Chipotle Jensen Beach,Florida,Stuart,27.234784718273794,-80.26763416845245
766,Chipotle Sawgrass Mills Food Court,Florida,Sunrise,26.149898820111755,-80.32448515428177
767,Chipotle Governors Square Tallahassee,Florida,Tallahassee,30.436125137414347,-84.25839439999999
768,Chipotle Florida State University,Florida,Tallahassee,30.448789683802726,-84.31106364035315
769,Chipotle Carriage Gate Tallahassee,Florida,Tallahassee,30.50443578421638,-84.24967576502968
770,Chipotle Carrollwood,Florida,Tampa,28.063586551480032,-82.50338113492035
771,Chipotle New Tampa Highwoods Preserve,Florida,Tampa,28.131285257510452,-82.36579343374694
772,Chipotle Dale Mabry & Walnut,Florida,Tampa,27.960170100690004,-82.50500973341502
773,Chipotle International Plaza Food Court,Florida,Tampa,27.96470755379821,-82.52085684014975
774,Chipotle USF Fowler 2,Florida,Tampa,28.05487327921455,-82.42981195716999
775,Chipotle Westshore,Florida,Tampa,27.947477795652127,-82.52395333804606
776,Chipotle Dale Mabry & Gandy,Florida,Tampa,27.89343930614048,-82.50586515828377
777,Chipotle South Tampa,Florida,Tampa,27.939684494344494,-82.48338686437711
778,Chipotle Gunn Highway Citrus Park,Florida,Tampa,28.06646553487602,-82.57050848675283
779,Chipotle Westchase,Florida,Tampa,28.043468,-82.590389
780,Chipotle Vero Beach,Florida,Vero Beach,27.638264447032626,-80.44798372741229
781,Chipotle Wellington,Florida,Wellington,26.663797,-80.202153
782,Chipotle West Palm Beach,Florida,West Palm Beach,26.708201,-80.098556
783,Chipotle Weston,Florida,Weston,26.067603,-80.363058
784,Chipotle Windermere,Florida,Windermere,28.49320603224206,-81.50927760290779
785,Chipotle Dillard & 50,Florida,Winter Garden,28.551525,-81.58541009999999
786,Chipotle Winter Garden,Florida,Winter Garden,28.520862925627803,-81.58684953378031
787,Chipotle Winter Haven,Florida,Winter Haven,28.003602586341753,-81.71751414785041
788,Chipotle Winter Park,Florida,Winter Park,28.59363199020683,-81.36531549502968
789,Chipotle Willa Springs,Florida,Winter Springs,28.646809921853677,-81.27011235061167
790,Chipotle Albany,Georgia,Albany,31.617004244299196,-84.22186359631252
791,Chipotle Alpharetta North Point,Georgia,Alpharetta,34.05176246676509,-84.28630241563991
792,Chipotle Windward,Georgia,Alpharetta,34.09082267722346,-84.27493030209013
793,Chipotle Athens Alps,Georgia,Athens,33.947373403855124,-83.40882517790988
794,Chipotle ATL Concourse D,Georgia,Atlanta,33.64085259204115,-84.4292577521349
795,Chipotle Perimeter Mall,Georgia,Atlanta,33.9278660829241,-84.34403443602827
796,Chipotle Emory Village,Georgia,Atlanta,33.78863733648415,-84.32665965129746
797,Chipotle South Buckhead,Georgia,Atlanta,33.8016155,-84.39275119999999
798,Chipotle Howell Mill Rd,Georgia,Atlanta,33.81020202873804,-84.41311570552256
799,Chipotle Lavista Northlake,Georgia,Atlanta,33.845862658514974,-84.25600602883429
800,Chipotle Toco Hills,Georgia,Atlanta,33.81468877374229,-84.31016042847523
801,Chipotle Cumberland,Georgia,Atlanta,33.88102857875902,-84.46140194291598
802,Chipotle Lenox Mall Food Court,Georgia,Atlanta,33.845309,-84.36136
803,Chipotle Buckhead North,Georgia,Atlanta,33.84814155240244,-84.37417909201338
804,Chipotle Perimeter Mall Food Court,Georgia,Atlanta,33.923783917905816,-84.34106850934177
805,Chipotle West Midtown Atlanta,Georgia,Atlanta,33.791027225178105,-84.40703749202919
806,Chipotle Ponce de Leon,Georgia,Atlanta,33.77392179723447,-84.36356532716769
807,Chipotle Augusta Exchange,Georgia,Augusta,33.4905308,-82.0799923
808,Chipotle Mall of Georgia,Georgia,Buford,34.0731190716733,-83.9848486165676
809,Chipotle Canton Marketplace,Georgia,Canton,34.23665147381761,-84.45634731900049
810,Chipotle Chamblee,Georgia,Chamblee,33.884559493961305,-84.31577334085944
811,Chipotle Columbus South,Georgia,Columbus,32.482932,-84.942702
812,Chipotle Columbus Park Crossing,Georgia,Columbus,32.54176918447279,-84.9503442909704
813,Chipotle Conyers,Georgia,Conyers,33.651075932180035,-84.00914985491085
814,Chipotle Cumming Market Place Highway 20,Georgia,Cumming,34.181216100794025,-84.1330584184027
815,Chipotle Downtown Decatur,Georgia,Decatur,33.775257,-84.298713
816,Chipotle John's Creek,Georgia,Duluth,34.06743458487391,-84.1693788199085
817,Chipotle Gwinnett,Georgia,Duluth,33.95524015106256,-84.1310987699232
818,Chipotle Duluth Sugarloaf Parkway,Georgia,Duluth,34.0214559846354,-84.12027296747647
819,Chipotle Camp Creek,Georgia,East Point,33.65723509187696,-84.4992085118999
820,Chipotle Gainesville GA,Georgia,Gainesville,34.30324725043142,-83.85866046781626
821,Chipotle Kennesaw State,Georgia,Kennesaw,34.03541847770412,-84.57355248098565
822,Chipotle Ernest Barrett Parkway,Georgia,Kennesaw,34.00384741990944,-84.57924998900114
823,Chipotle Sugarloaf Crossing,Georgia,Lawrenceville,33.95569583,-84.05474217
824,Chipotle Lawrenceville,Georgia,Lawrenceville,33.967097,-84.022464
825,Chipotle Macon,Georgia,Macon,32.90075978429131,-83.68851949479199
826,Chipotle Marietta East Cobb,Georgia,Marietta,33.980022015632436,-84.4246115323565
827,Chipotle Sandy Plains 2,Georgia,Marietta,34.037258,-84.461132
828,Chipotle McDonough,Georgia,McDonough,33.42289817058108,-84.18719384938834
829,Chipotle Morrow Mt. Zion,Georgia,Morrow,33.562695515038,-84.32466225520801
830,Chipotle Newnan,Georgia,Newnan,33.39842,-84.74004
831,Chipotle Norcross,Georgia,Norcross,33.980169053799216,-84.21718735307581
832,Chipotle Jimmy Carter Blvd,Georgia,Norcross,33.90860537855734,-84.20569164719689
833,Chipotle Pooler GA,Georgia,Pooler,32.140189191111766,-81.24343997702158
834,Chipotle Roswell,Georgia,Roswell,34.0439237,-84.3422444
835,Chipotle Chastain Park,Georgia,Sandy Springs,33.880987581738474,-84.38013421714459
836,Chipotle Sandy Springs,Georgia,Sandy Springs,33.91633,-84.379629
837,Chipotle Savannah Victory Station,Georgia,Savannah,32.043855769009234,-81.07206736043338
838,Chipotle Savannah Abercorn,Georgia,Savannah,32.00529780199559,-81.11393599644379
839,Chipotle Snellville President Commons,Georgia,Snellville,33.88240818771869,-84.01050865398463
840,Chipotle Suwanee,Georgia,Suwanee,34.034380234679965,-84.05223583374692
841,Chipotle Tucker,Georgia,Tucker,33.85160475141166,-84.21001497362806
842,Chipotle Warner Robins,Georgia,Warner Robins,32.61858440661779,-83.69034944299307
843,Chipotle Boise Towne Square,Idaho,Boise,43.606686,-116.2823
844,Chipotle Downtown Boise,Idaho,Boise,43.61266805437867,-116.20309363558198
845,Chipotle Garden City,Idaho,Boise,43.67126092041141,-116.28303340613422
846,Chipotle Meridian,Idaho,Meridian,43.62420794020334,-116.353922864418
847,Chipotle Addison - Lake 53,Illinois,Addison,41.9496874031525,-88.03226236073056
848,Chipotle Algonquin,Illinois,Algonquin,42.17159600252217,-88.33588366699172
849,Chipotle Arlington Heights,Illinois,Arlington Heights,42.11278119202118,-87.9783201156414
850,Chipotle Aurora Orchard,Illinois,Aurora,41.78628300002481,-88.37625017790987
851,Chipotle Aurora Kirk & Butterfield,Illinois,Aurora,41.813719219486686,-88.28039555276126
852,Chipotle Fox Valley,Illinois,Aurora,41.76848482177453,-88.20634978693226
853,Chipotle Berwyn,Illinois,Berwyn,41.850691159537845,-87.80281364750965
854,Chipotle Fairfield and Lake Street,Illinois,Bloomingdale,41.957117193991756,-88.07361856258296
855,Chipotle Bloomingdale,Illinois,Bloomingdale,41.93874655089229,-88.11421337463662
856,Chipotle Bloomington Veterans Prkwy,Illinois,Bloomington,40.48248541554632,-88.95222838487888
857,Chipotle Bolingbrook,Illinois,Bolingbrook,41.690363024628496,-88.12505971317728
858,Chipotle Boughton Road Bolingbrook,Illinois,Bolingbrook,41.72133805137166,-88.03794158895494
859,Chipotle Bradley,Illinois,Bourbonnais,41.17397974758985,-87.85218980919035
860,Chipotle Bridgeview 87th & Harlem,Illinois,Bridgeview,41.73124799980357,-87.79849106962604
861,Chipotle Champaign,Illinois,Champaign,40.11042402624319,-88.23064214662702
862,Chipotle Champaign Prospect,Illinois,Champaign,40.13749109892263,-88.25864082861125
863,Chipotle Jackson,Illinois,Chicago,41.87833440877127,-87.6272176039846
864,Chipotle Madison LaSalle,Illinois,Chicago,41.88174,-87.632721
865,Chipotle Kenmore,Illinois,Chicago,41.93973087336189,-87.65514537055225
866,Chipotle South Loop,Illinois,Chicago,41.868017973990106,-87.64108456869985
867,Chipotle Division,Illinois,Chicago,41.9037469498126,-87.62887866625306
868,Chipotle Hyde Park Chicago,Illinois,Chicago,41.7997105,-87.5880394
869,Chipotle Damen Avenue,Illinois,Chicago,41.913297970392065,-87.67733037205755
870,Chipotle Clybourn Commons,Illinois,Chicago,41.91769508550807,-87.66004280345976
871,Chipotle Pipers Alley,Illinois,Chicago,41.911403227125746,-87.63506934259453
872,Chipotle Orchard,Illinois,Chicago,41.92350400540954,-87.64652868304881
873,Chipotle 230 W. Monroe,Illinois,Chicago,41.88108437813068,-87.63511297548047
874,Chipotle Beverly,Illinois,Chicago,41.72143990127644,-87.6799634265775
875,Chipotle Franklin,Illinois,Chicago,41.8855320270008,-87.63522506502972
876,Chipotle Brickyard Mall,Illinois,Chicago,41.92851792184805,-87.78722253233002
877,Chipotle Elston Logan,Illinois,Chicago,41.93166629191262,-87.68637726512645
878,Chipotle Ashland Diversey,Illinois,Chicago,41.93283499537232,-87.66802508832586
879,Chipotle Ontario,Illinois,Chicago,41.89304267133276,-87.62061535496753
880,Chipotle 311 S. Wacker,Illinois,Chicago,41.877522,-87.636221
881,Chipotle Michigan & Wacker,Illinois,Chicago,41.887287723166054,-87.62484811532687
882,Chipotle Broadway & Belmont,Illinois,Chicago,41.939922888732994,-87.64426922086676
883,Chipotle Addison Elston,Illinois,Chicago,41.94578588649546,-87.70913422485143
884,Chipotle Western and Roscoe,Illinois,Chicago,41.94133967847937,-87.68876654419415
885,Chipotle Chatham,Illinois,Chicago,41.73579185673286,-87.6259547973151
886,Chipotle Market Place 6 Corners,Illinois,Chicago,41.95324304724903,-87.74494020246414
887,Chipotle Broadway and Foster,Illinois,Chicago,41.97713525720151,-87.66040990548163
888,Chipotle Presidential Towers,Illinois,Chicago,41.880363979091925,-87.64086857977964
889,Chipotle 53rd and Pulaski,Illinois,Chicago,41.796193330266235,-87.72356814466468
890,Chipotle Lincoln Peterson,Illinois,Chicago,41.98955173079163,-87.70556567170865
891,Chipotle River North,Illinois,Chicago,41.8918108,-87.6284856
892,Chipotle Diversey,Illinois,Chicago,41.93303499501625,-87.64420581377357
893,Chipotle Rogers Park,Illinois,Chicago,42.00272859488067,-87.66121950000002
894,Chipotle Chicago-Ford City,Illinois,Chicago,41.75477468508043,-87.74066386656762
895,Chipotle Madison & State,Illinois,Chicago,41.8822769494024,-87.62712131212254
896,Chipotle Englewood 63rd & Halsted,Illinois,Chicago,41.77998374448471,-87.64511749125887
897,Chipotle Cicero,Illinois,Cicero,41.85088850929855,-87.74374895213225
898,Chipotle Countryside LaGrange Road,Illinois,Countryside,41.7847779186473,-87.86812296932885
899,Chipotle Crestwood,Illinois,Crestwood,41.64942357682577,-87.7387279322765
900,Chipotle Crystal Lake,Illinois,Crystal Lake,42.2266201,-88.294964
901,Chipotle Deerfield,Illinois,Deerfield,42.16707283028163,-87.84410756469782
902,Chipotle Dekalb NIU,Illinois,Dekalb,41.931431845416185,-88.77154605520798
903,Chipotle Dekalb Barber Greene,Illinois,Dekalb,41.95327767992289,-88.72541913125025
904,Chipotle Saratoga and Ogden,Illinois,Downers Grove,41.8082715,-88.0144421
905,Chipotle Downers Grove Finley Square,Illinois,Downers Grove,41.8352626,-88.025264
906,Chipotle East Peoria,Illinois,East Peoria,40.66952944937027,-89.58376065305845
907,Chipotle Effingham,Illinois,Effingham,39.13795421644866,-88.56590846932886
908,Chipotle Elk Grove Village,Illinois,Elk Grove Village,42.003124544384164,-88.0049156472387
909,Chipotle Elmhurst,Illinois,Elmhurst,41.90128793628984,-87.93955009479197
910,Chipotle IL 83 and St Charles,Illinois,Elmhurst,41.8906671514621,-87.96134850690294
911,Chipotle Evanston,Illinois,Evanston,42.048639761346465,-87.68125400238114
912,Chipotle Fairview Heights,Illinois,Fairview Heights,38.5919230783912,-89.98552974909114
913,Chipotle Frankfort,Illinois,Frankfort,41.50231724529297,-87.8867683582838
914,Chipotle Grand and Mannheim,Illinois,Franklin Park,41.93185926667227,-87.88549358096827
915,Chipotle Geneva,Illinois,Geneva,41.87468403493223,-88.33968800889551
916,Chipotle Glen Ellyn,Illinois,Glen Ellyn,41.85900705685357,-88.05765157729815
917,Chipotle Glenview,Illinois,Glenview,42.1047828894707,-87.81413174203072
918,Chipotle Willow Sanders,Illinois,Glenview,42.10959366267737,-87.87485956564137
919,Chipotle Gurnee Mills,Illinois,Gurnee,42.38420179444628,-87.95444163379386
920,Chipotle Highland Park,Illinois,Highland Park,42.18619594575729,-87.80243668987879
921,Chipotle Hoffman Estates Golf & Roselle,Illinois,Hoffman Estates,42.04887855263254,-88.0789019139159
922,Chipotle Prairie Stone,Illinois,Hoffman Estates,42.070531743437954,-88.19111400900215
923,Chipotle Homer Glen,Illinois,Homer Glen,41.632019824148436,-87.93181137150395
924,Chipotle Homewood - Flossmoor,Illinois,Homewood,41.568102,-87.636909
925,Chipotle South Joliet,Illinois,Joliet,41.52262690215944,-88.14753271163943
926,Chipotle Joliet The Pointe,Illinois,Joliet,41.576823,-88.1589
927,Chipotle Kildeer,Illinois,Kildeer,42.16132855306302,-88.04982746165672
928,Chipotle LaGrange Relo,Illinois,La Grange,41.81775311651351,-87.87007642822437
929,Chipotle Lake Bluff,Illinois,Lake Bluff,42.27901746522711,-87.87148000372844
930,Chipotle Libertyville,Illinois,Libertyville,42.28394186980323,-87.95382373170287
931,Chipotle Lincolnshire,Illinois,Lincolnshire,42.18214408154884,-87.92907698680534
932,Chipotle Lincolnwood Town Center,Illinois,Lincolnwood,42.01066901412909,-87.71212630031448
933,Chipotle Rockford Machesney,Illinois,Machesney Park,42.366050222854106,-89.02332931866505
934,Chipotle Matteson Lincoln Hwy.,Illinois,Matteson,41.5056300166093,-87.73330354437786
935,Chipotle McHenry,Illinois,McHenry,42.35995961643056,-88.26646467313594
936,Chipotle Melrose Park,Illinois,Melrose Park,41.90883227907935,-87.85005666916345
937,Chipotle Mokena,Illinois,Mokena,41.5417749,-87.8513395
938,Chipotle Moline,Illinois,Moline,41.47069453983136,-90.47969505552254
939,Chipotle Randhurst,Illinois,Mt Prospect,42.08110867465319,-87.9356714875911
940,Chipotle Naperville Tower Crossing,Illinois,Naperville,41.79744009721777,-88.11870392423975
941,Chipotle Naperville Riverwalk,Illinois,Naperville,41.77105968177384,-88.14767047915058
942,Chipotle Naperville 95th,Illinois,Naperville,41.711823457575214,-88.20511906702484
943,Chipotle New Lenox,Illinois,New Lenox,41.5128149,-87.9508996
944,Chipotle Golf Mill,Illinois,Niles,42.05507313807313,-87.83558873998686
945,Chipotle Veterans & College Normal,Illinois,Normal,40.50990552797712,-88.95471746569933
946,Chipotle IL State,Illinois,Normal,40.50423995214962,-88.9949881358965
947,Chipotle HIP - Harlem & Irving,Illinois,Norridge,41.9574872,-87.8075177
948,Chipotle Northbrook Lake Cook,Illinois,Northbrook,42.139012,-87.793116
949,Chipotle Oak Brook East,Illinois,Oak Brook,41.84844840389466,-87.93227529566826
950,Chipotle 111th and Cicero Oak Lawn,Illinois,Oak Lawn,41.69188675089678,-87.74027828607763
951,Chipotle Oak Lawn 95th,Illinois,Oak Lawn,41.720041,-87.77652
952,Chipotle Oak Park,Illinois,Oak Park,41.88883551774075,-87.80408721584587
953,Chipotle Oakbrook,Illinois,Oakbrook Terrace,41.84660906858677,-87.9786664144811
954,Chipotle Orland Park,Illinois,Orland Park,41.61299337281511,-87.85493802117333
955,Chipotle Oswego,Illinois,Oswego,41.703872343702535,-88.30697778956664
956,Chipotle Palatine,Illinois,Palatine,42.13866302769923,-88.025485
957,Chipotle Park Ridge,Illinois,Park Ridge,42.00997892175324,-87.82708567485145
958,Chipotle Peoria Northwoods,Illinois,Peoria,40.743074893515264,-89.63116594967278
959,Chipotle Peru,Illinois,Peru,41.3605527,-89.12652299999999
960,Chipotle Plainfield 127th,Illinois,Plainfield,41.65110160732216,-88.20422347362808
961,Chipotle Rockford,Illinois,Rockford,42.26444773139351,-88.98075800359567
962,Chipotle Rolling Meadows,Illinois,Rolling Meadows,42.050484333792305,-87.9941664040665
963,Chipotle Romeoville,Illinois,Romeoville,41.616325656034896,-88.12274269136913
964,Chipotle Rosemont,Illinois,Rosemont,42.00755755185913,-87.88551169694881
965,Chipotle Round Lake Beach,Illinois,Round Lake Beach,42.38274371306954,-88.06356499999998
966,Chipotle St. Charles,Illinois,Saint Charles,41.920621,-88.265948
967,Chipotle Barrington Road,Illinois,Schaumburg,42.02525727666639,-88.14369206674729
968,Chipotle Woodfield Mall,Illinois,Schaumburg,42.046502,-88.037319
969,Chipotle Streets of Woodfield,Illinois,Schaumburg,42.04026816803206,-88.03367405183508
970,Chipotle Touhy,Illinois,Skokie,42.01133934438709,-87.7628489328207
971,Chipotle Old Orchard,Illinois,Skokie,42.052268534374164,-87.74730965945218
972,Chipotle South Elgin,Illinois,South Elgin,41.98575082445021,-88.3416390631537
973,Chipotle South Holland,Illinois,South Holland,41.60041,-87.60252
974,Chipotle Springfield White Oaks IL,Illinois,Springfield,39.764472183693414,-89.70433341625312
975,Chipotle Tinley Park,Illinois,Tinley Park,41.6007970286712,-87.79467815301211
976,Chipotle Vernon Hills,Illinois,Vernon Hills,42.23253585360423,-87.94216604411014
977,Chipotle Villa Park,Illinois,Villa Park,41.90590420916699,-87.98570447590942
978,Chipotle Warrenville,Illinois,Warrenville,41.80168159337958,-88.17234289356861
979,Chipotle Waukegan,Illinois,Waukegan,42.34231062877063,-87.89580172866579
980,Chipotle W Dundee Springhill,Illinois,West Dundee,42.099735685213965,-88.2865666828207
981,Chipotle Westmont,Illinois,Westmont,41.81055615306768,-87.96812019556359
982,Chipotle Wheaton West,Illinois,Wheaton,41.858237893153735,-88.13908241066997
983,Chipotle Wheaton,Illinois,Wheaton,41.830199725565194,-88.09378961536157
984,Chipotle Wheeling,Illinois,Wheeling,42.155047,-87.954021
985,Chipotle Willowbrook 83,Illinois,Willowbrook,41.758660325945705,-87.94422101015164
986,Chipotle Aurora Indiana,Indiana,Aurora,39.078146061122055,-84.88934078711986
987,Chipotle Rockville Road,Indiana,Avon,39.762895909175974,-86.33836394756969
988,Chipotle College Mall,Indiana,Bloomington,39.161408,-86.496584
989,Chipotle Indiana University,Indiana,Bloomington,39.166285738149845,-86.52904216165928
990,Chipotle Old Meridian,Indiana,Carmel,39.97252248244745,-86.15455607607475
991,Chipotle Westfield,Indiana,Carmel,40.000772151031036,-86.11894650674861
992,Chipotle Columbus Indiana,Indiana,Columbus,39.22101991625809,-85.88924752302523
993,Chipotle Crown Point IN,Indiana,Crown Point,41.422845,-87.334767
994,Chipotle Evansville Green River Road,Indiana,Evansville,37.98082540579189,-87.49201180387706
995,Chipotle Jefferson Pointe,Indiana,Fort Wayne,41.07148,-85.19745
996,Chipotle Lima Road,Indiana,Fort Wayne,41.1351220320867,-85.16191923388442
997,Chipotle Coliseum Blvd,Indiana,Fort Wayne,41.11749543367268,-85.12841851761874
998,Chipotle Highland IN,Indiana,Highland,41.52539694860443,-87.4704855706176
999,Chipotle Broad Ripple,Indiana,Indianapolis,39.86995692750833,-86.14149704968548
1000,Chipotle Nora,Indiana,Indianapolis,39.912875515800636,-86.13427446800051
1001,Chipotle College Plaza,Indiana,Indianapolis,39.91217454296425,-86.21840365166963
1002,Chipotle 96th Street,Indiana,Indianapolis,39.926395906699916,-86.09033975083355
1003,Chipotle Castleton,Indiana,Indianapolis,39.90567693958648,-86.0772180908155
1004,Chipotle Downtown Indy,Indiana,Indianapolis,39.76737916079303,-86.15772653956662
1005,Chipotle IUPUI #3,Indiana,Indianapolis,39.78174843846441,-86.16946385226066
1006,Chipotle Keystone Fashion Mall Fd Ct,Indiana,Indianapolis,39.914844,-86.110839
1007,Chipotle Greenwood,Indiana,Indianapolis,39.63826257311809,-86.12946814924817
1008,Chipotle Kokomo,Indiana,Kokomo,40.47377354927702,-86.10880265333435
1009,Chipotle Lafayette,Indiana,Lafayette,40.41846821399072,-86.82954387532425
1010,Chipotle Merrillville,Indiana,Merrillville,41.470736990236766,-87.31083039632989
1011,Chipotle Michigan City,Indiana,Michigan City,41.673380954642326,-86.89335480398461
1012,Chipotle Mishawaka,Indiana,Mishawaka,41.71028083439904,-86.18070116590599
1013,Chipotle Munster,Indiana,Munster,41.56395893764176,-87.50843999508913
1014,Chipotle Hamilton Town Center,Indiana,Noblesville,39.995890457314744,-85.93711365087654
1015,Chipotle Plainfield IN,Indiana,Plainfield,39.713918794225286,-86.35595401780137
1016,Chipotle Portage IN,Indiana,Portage,41.55118547337976,-87.1808513923861
1017,Chipotle Richmond Village,Indiana,Richmond,39.83144389393682,-84.84945814532085
1018,Chipotle Notre Dame,Indiana,South Bend,41.6920415043313,-86.2358857300768
1019,Chipotle Ireland and 31 South Bend,Indiana,South Bend,41.628513,-86.252848
1020,Chipotle Speedway,Indiana,Speedway,39.79993664159451,-86.27169572921116
1021,Chipotle Valpo,Indiana,Valparaiso,41.46907372522234,-87.03010219694158
1022,Chipotle Purdue University,Indiana,West Lafayette,40.42362984548049,-86.90715731056514
1023,Chipotle Ames,Iowa,Ames,42.01762602548903,-93.61099249418032
1024,Chipotle Ankeny,Iowa,Ankeny,41.70932548708022,-93.58076895891281
1025,Chipotle Lindale Mall,Iowa,Cedar Rapids,42.0257279,-91.6278471
1026,Chipotle Davenport 53rd and Elmore,Iowa,Davenport,41.57325064748647,-90.52935652944774
1027,Chipotle Merle Hay,Iowa,Des Moines,41.62890796599062,-93.69716400744699
1028,Chipotle Dubuque,Iowa,Dubuque,42.49151163119097,-90.72015554138233
1029,Chipotle Iowa City,Iowa,Iowa City,41.6582161,-91.535465
1030,Chipotle Sioux City,Iowa,Sioux City,42.445753455795476,-96.34322483892237
1031,Chipotle Valley West Mall,Iowa,West Des Moines,41.597734108850496,-93.75013860049171
1032,Chipotle Jordan Creek,Iowa,West Des Moines,41.562482615708745,-93.799376757745
1033,Chipotle Derby Marketplace,Kansas,Derby,37.564432,-97.243499
1034,Chipotle Legends,Kansas,Kansas City,39.126454,-94.823311
1035,Chipotle Lawrence - 23rd Street,Kansas,Lawrence,38.9431782738469,-95.25197260061168
1036,Chipotle West Lawrence,Kansas,Lawrence,38.97245,-95.29063
1037,Chipotle Mass Ave,Kansas,Lawrence,38.967018421841274,-95.23631557868805
1038,Chipotle Leawood,Kansas,Leawood,38.9125715657598,-94.64321666434478
1039,Chipotle 95th & Quivira,Kansas,Lenexa,38.95731501056386,-94.7266590464634
1040,Chipotle Manhattan KS,Kansas,Manhattan,39.185080145571206,-96.57609178725164
1041,Chipotle Johnson Drive,Kansas,Mission,39.0233588780218,-94.66488381345926
1042,Chipotle Blackbob,Kansas,Olathe,38.8835246,-94.75239499999999
1043,Chipotle Northridge,Kansas,Olathe,38.91336688245573,-94.76154980706042
1044,Chipotle Olathe West,Kansas,Olathe,38.8836353,-94.83467759999999
1045,Chipotle Southgate,Kansas,Olathe,38.85118143487868,-94.81751099999997
1046,Chipotle Oak Park Mall Food Court,Kansas,Overland Park,38.9539571,-94.7178717
1047,Chipotle Glenwood,Kansas,Overland Park,38.96353698157063,-94.66584090810375
1048,Chipotle 135th & Metcalf,Kansas,Overland Park,38.885051930374836,-94.66726981410352
1049,Chipotle Stanley,Kansas,Overland Park,38.85418,-94.6832853
1050,Chipotle Corporate Woods,Kansas,Overland Park,38.92795536341275,-94.69798653282066
1051,Chipotle Prairie Village,Kansas,Prairie Village,39.00357811563755,-94.63002840001735
1052,Chipotle Salina,Kansas,Salina,38.798609757612375,-97.61217383130014
1053,Chipotle Shawnee,Kansas,Shawnee,39.0141721724068,-94.722661317791
1054,Chipotle Shawnee West,Kansas,Shawnee,39.00816572417354,-94.84431229323673
1055,Chipotle Wanamaker,Kansas,Topeka,39.029519155343884,-95.76117973804605
1056,Chipotle New Market,Kansas,Wichita,37.724111996120406,-97.4632791926424
1057,Chipotle Rock Road,Kansas,Wichita,37.73819057473566,-97.24533290368748
1058,Chipotle Hillside,Kansas,Wichita,37.69397588815057,-97.2994637535221
1059,Chipotle Wichita East,Kansas,Wichita,37.67871226298413,-97.24504664293954
1060,Chipotle Maple & Ridge,Kansas,Wichita,37.68024307543954,-97.42445738667283
1061,Chipotle Bowling Green KY,Kentucky,Bowling Green,36.942810164816045,-86.42105669386581
1062,Chipotle Shoppes of Burlington,Kentucky,Burlington,39.018994824398916,-84.69386043712291
1063,Chipotle Covington - KY,Kentucky,Covington,39.086181312070885,-84.51897809631254
1064,Chipotle Buttermilk,Kentucky,Crescent Springs,39.04748325661645,-84.57624381473255
1065,Chipotle Erlanger,Kentucky,Erlanger,39.02139599395538,-84.58969733408992
1066,Chipotle Florence,Kentucky,Florence,39.00151275981252,-84.65273960061165
1067,Chipotle Dream Street,Kentucky,Florence,38.98875575553001,-84.64185621159845
1068,Chipotle NKU,Kentucky,Highland Heights,39.037630256321215,-84.45474513374688
1069,Chipotle Hamburg Place,Kentucky,Lexington,38.01731088823587,-84.41832706876778
1070,Chipotle Mount Tabor,Kentucky,Lexington,38.00529377637413,-84.44938885645047
1071,Chipotle U of Kentucky,Kentucky,Lexington,38.042701746623656,-84.50268633701171
1072,Chipotle Fayette Mall,Kentucky,Lexington,37.98760150174309,-84.52759618560964
1073,Chipotle Springhurst,Kentucky,Louisville,38.29402510069353,-85.56013987228573
1074,Chipotle Highlands,Kentucky,Louisville,38.238967765597295,-85.7213778155512
1075,Chipotle Middletown Commons,Kentucky,Louisville,38.243150314937814,-85.5087676883245
1076,Chipotle Downtown Louisville,Kentucky,Louisville,38.2531778531652,-85.75698610274395
1077,Chipotle Hurstbourne,Kentucky,Louisville,38.24016569713472,-85.57749303860567
1078,Chipotle Newport Pavilion 2,Kentucky,Newport,39.08709908015025,-84.47793181066459
1079,Chipotle Union,Kentucky,Union,38.961871927841884,-84.67847699894133
1080,Chipotle LSU,Louisiana,Baton Rouge,30.417974427719386,-91.17676362822436
1081,Chipotle Bossier City,Louisiana,Bossier City,32.550204796301486,-93.70878141842559
1082,Chipotle Gonzales Outlets,Louisiana,Gonzales,30.212391735947392,-90.95021245937141
1083,Chipotle Elmwood,Louisiana,Harahan,29.960016633840688,-90.18447917207277
1084,Chipotle Lafayette Ambassador,Louisiana,Lafayette,30.161787035053273,-92.05396746288011
1085,Chipotle Mandeville,Louisiana,Mandeville,30.394443522766583,-90.09224255405275
1086,Chipotle Veterans Blvd,Louisiana,Metairie,30.003046493631754,-90.16247630295788
1087,Chipotle Shreveport,Louisiana,Shreveport,32.44137301630907,-93.71825519565476
1088,Chipotle Slidell,Louisiana,Slidell,30.2686413,-89.7595959
1089,Chipotle Augusta,Maine,Augusta,44.34477644091355,-69.78859515735758
1090,Chipotle Bangor,Maine,Bangor,44.82935603508486,-68.75374996916833
1091,Chipotle Portland Marginal Way,Maine,Portland,43.660568,-70.266672
1092,Chipotle South Portland,Maine,South Portland,43.63497255874913,-70.33784503067113
1093,Chipotle Westbrook,Maine,Westbrook,43.67755647093197,-70.32975335255469
1094,Chipotle Annapolis Mall,Maryland,Annapolis,38.9875341,-76.54703940000002
1095,Chipotle Downtown Annapolis,Maryland,Annapolis,38.97779087252231,-76.487811240702
1096,Chipotle Aspen Hill,Maryland,Aspen Hill,39.0767385521299,-77.08003886717927
1097,Chipotle Greenspring Tower,Maryland,Baltimore,39.337918004127864,-76.63549782984785
1098,Chipotle North Charles Street,Maryland,Baltimore,39.304273,-76.615942
1099,Chipotle Can Company,Maryland,Baltimore,39.282066,-76.58249959999999
1100,Chipotle West Pratt Street,Maryland,Baltimore,39.28670810700659,-76.61954139079
1101,Chipotle Charles Village,Maryland,Baltimore,39.327126,-76.615604
1102,Chipotle White Marsh MD,Maryland,Baltimore,39.36785300275849,-76.4518370539846
1103,Chipotle Inner Harbor,Maryland,Baltimore,39.28526229191497,-76.60717786470093
1104,Chipotle Roger's Forge,Maryland,Baltimore,39.372166,-76.610238
1105,Chipotle Federal Hill,Maryland,Baltimore,39.271379720563324,-76.60113312733483
1106,Chipotle BWI Airport,Maryland,Baltimore,39.179425,-76.6710194
1107,Chipotle Bel Air MD,Maryland,Bel Air,39.495554464617705,-76.32775172023776
1108,Chipotle Old Georgetown Square,Maryland,Bethesda,39.025392,-77.1268395
1109,Chipotle Montgomery Mall,Maryland,Bethesda,39.02284,-77.14688
1110,Chipotle Bethesda,Maryland,Bethesda,38.98574474488044,-77.09621984356863
1111,Chipotle Vista Gardens,Maryland,Bowie,38.95485113861978,-76.82841757640665
1112,Chipotle Bowie Market Place,Maryland,Bowie,38.977758,-76.735053
1113,Chipotle Bowie Town Center,Maryland,Bowie,38.944483425863304,-76.73512772577453
1114,Chipotle Brandywine MD,Maryland,Brandywine,38.6692755631403,-76.87698607215009
1115,Chipotle Iverson Mall,Maryland,Camp Springs,38.840009,-76.94731
1116,Chipotle Steeplechase,Maryland,Capitol Heights,38.86974794323503,-76.84783496630547
1117,Chipotle Chevy Chase,Maryland,Chevy Chase,38.962239032638514,-77.08858530100542
1118,Chipotle Woodyard Crossing,Maryland,Clinton,38.767586450079584,-76.88793641104508
1119,Chipotle North College Park,Maryland,College Park,39.02266088154668,-76.92578800447194
1120,Chipotle College Park,Maryland,College Park,38.980360533681065,-76.93895814723874
1121,Chipotle Columbia Mall,Maryland,Columbia,39.215549,-76.860388
1122,Chipotle Columbia,Maryland,Columbia,39.20076034147606,-76.8129621028375
1123,Chipotle Damascus,Maryland,Damascus,39.288788,-77.202484
1124,Chipotle Dunkirk,Maryland,Dunkirk,38.72415630572495,-76.65890825644874
1125,Chipotle Easton MD,Maryland,Easton,38.7939118853204,-76.05938578793854
1126,Chipotle Lee Airport,Maryland,Edgewater,38.9431707434537,-76.56211548570462
1127,Chipotle Ellicott City,Maryland,Ellicott City,39.27729715201601,-76.82593794728393
1128,Chipotle North Bel Air,Maryland,Forest Hill,39.56149786307371,-76.37297281858059
1129,Chipotle Forestville,Maryland,Forestville,38.846202196802416,-76.88526455398465
1130,Chipotle Westview,Maryland,Frederick,39.37431782567405,-77.41217209325407
1131,Chipotle Frederick,Maryland,Frederick,39.44543317820597,-77.39736336441803
1132,Chipotle Golden Mile,Maryland,Frederick,39.416477,-77.437971
1133,Chipotle Maple Lawn,Maryland,Fulton,39.14962293900993,-76.909739677537
1134,Chipotle Washingtonian,Maryland,Gaithersburg,39.116398086582834,-77.19833153372957
1135,Chipotle Gaithersburg Square,Maryland,Gaithersburg,39.148500297658316,-77.21034726304663
1136,Chipotle Kentlands,Maryland,Gaithersburg,39.12463464422319,-77.23705384612038
1137,Chipotle Waugh Chapel,Maryland,Gambrills,39.03805526142143,-76.68011710835833
1138,Chipotle Germantown MD,Maryland,Germantown,39.1825474485048,-77.26392329096461
1139,Chipotle Germantown East,Maryland,Germantown,39.203588,-77.24782
1140,Chipotle Pasadena MD,Maryland,Glen Burnie,39.1357911,-76.5971114
1141,Chipotle Glen Burnie,Maryland,Glen Burnie,39.194659167872096,-76.61408048684524
1142,Chipotle Berwyn Heights,Maryland,Greenbelt,38.998616289935974,-76.9121508388173
1143,Chipotle Hagerstown,Maryland,Hagerstown,39.65965626685761,-77.74470580514492
1144,Chipotle Arundel Mills,Maryland,Hanover,39.153288699723134,-76.72458766135958
1145,Chipotle Hunt Valley,Maryland,Hunt Valley,39.49666393876102,-76.65439867974487
1146,Chipotle Mall at Prince Georges,Maryland,Hyattsville,38.968332,-76.957459
1147,Chipotle Hyattsville,Maryland,Hyattsville,38.9557641002743,-76.9399147096413
1148,Chipotle Kensington,Maryland,Kensington,39.02801182820218,-77.0768186126383
1149,Chipotle La Plata,Maryland,La Plata,38.54705998648023,-76.98435125244674
1150,Chipotle Woodmore Towne Centre,Maryland,Lanham,38.92132285312218,-76.84679080772418
1151,Chipotle Laurel Lakes,Maryland,Laurel,39.085207074107956,-76.86234769323676
1152,Chipotle Maryland City,Maryland,Laurel,39.097909,-76.80889
1153,Chipotle Lex Park,Maryland,Lexington Park,38.29199297143081,-76.49364679155076
1154,Chipotle West Nursery,Maryland,Linthicum Heights,39.2021190608459,-76.68350122555148
1155,Chipotle Timonium 2,Maryland,Lutherville Timonium,39.432695484655554,-76.62327665062207
1156,Chipotle Mount Airy,Maryland,Mount Airy,39.36459428127835,-77.16032140557706
1157,Chipotle New Carrollton,Maryland,New Carrollton,38.95776505795216,-76.86997491794443
1158,Chipotle West Ocean City,Maryland,Ocean City,38.335864047678974,-75.10149394580105
1159,Chipotle Olney,Maryland,Olney,39.15319846069241,-77.06617600735763
1160,Chipotle Owings Mills,Maryland,Owings Mills,39.41260253780773,-76.77222599995616
1161,Chipotle National Harbor,Maryland,Oxon Hill,38.78456502180224,-77.01677047114663
1162,Chipotle Parkville,Maryland,Parkville,39.373190539566,-76.54258162505226
1163,Chipotle Pikesville,Maryland,Pikesville,39.388347287765285,-76.73605543096829
1164,Chipotle Potomac Village,Maryland,Potomac,39.01644679341568,-77.20893042177562
1165,Chipotle Prince Frederick,Maryland,Prince Frederick,38.54466171997771,-76.59210094780951
1166,Chipotle Pike & Rose,Maryland,Rockville,39.04970769344476,-77.1155534012928
1167,Chipotle Falls Grove,Maryland,Rockville,39.096486329395425,-77.19264662649374
1168,Chipotle Wintergreen,Maryland,Rockville,39.07526384358975,-77.1378042763244
1169,Chipotle Golden Ring,Maryland,Rosedale,39.33537698500711,-76.48506029799495
1170,Chipotle Salisbury University,Maryland,Salisbury,38.349694896617926,-75.6026398781134
1171,Chipotle North Salisbury,Maryland,Salisbury,38.40314223677961,-75.56972900580195
1172,Chipotle Severna Park,Maryland,Severna Park,39.07750802719245,-76.54460862881808
1173,Chipotle Four Corners,Maryland,Silver Spring,39.020948752334306,-77.01183547632206
1174,Chipotle Hillandale Center,Maryland,Silver Spring,39.021908,-76.976732
1175,Chipotle White Oak,Maryland,Silver Spring,39.055390841887636,-76.95490371477462
1176,Chipotle Silver Spring,Maryland,Silver Spring,38.9966311,-77.0261864
1177,Chipotle Eldersburg,Maryland,Sykesville,39.3985131,-76.93336029999999
1178,Chipotle Towson Commons,Maryland,Towson,39.40038944602631,-76.60287415591904
1179,Chipotle Joppa,Maryland,Towson,39.398285220558115,-76.58570495763121
1180,Chipotle Watkins,Maryland,Upper Marlboro,38.89993307622743,-76.79169209816496
1181,Chipotle Waldorf,Maryland,Waldorf,38.622815,-76.913427
1182,Chipotle Westminster II,Maryland,Westminster,39.56205587465604,-76.9716109974724
1183,Chipotle Wheaton Mall,Maryland,Wheaton,39.036633,-77.054969
1184,Chipotle Woodlawn,Maryland,Windsor Mill,39.312568,-76.755543
1185,Chipotle Attleboro Rte 1,Massachusetts,Attleboro,41.923616,-71.356089
1186,Chipotle Bedford MA,Massachusetts,Bedford,42.48626123410977,-71.26263480115858
1187,Chipotle Beverly_MA,Massachusetts,Beverly,42.57587812651021,-70.89119600990847
1188,Chipotle Billerica,Massachusetts,Billerica,42.58045133898181,-71.2881531532862
1189,Chipotle Boston Financial District,Massachusetts,Boston,42.353400966980466,-71.05809176158334
1190,Chipotle Fenway Park,Massachusetts,Boston,42.3446132495707,-71.10059735090653
1191,Chipotle School Street,Massachusetts,Boston,42.35754930625036,-71.05842906380633
1192,Chipotle Boston Seaport,Massachusetts,Boston,42.35104802744972,-71.04572392262361
1193,Chipotle 553 Boylston Street,Massachusetts,Boston,42.350645680219706,-71.07624230622412
1194,Chipotle City Place Theatre District,Massachusetts,Boston,42.35175377853128,-71.06697288841269
1195,Chipotle South Shore Plaza,Massachusetts,Braintree,42.2207521,-71.02547059999999
1196,Chipotle Cleveland Circle MA,Massachusetts,Brighton,42.33645762978058,-71.14958375090885
1197,Chipotle Brockton Westgate Mall,Massachusetts,Brockton,42.09356165215642,-71.05460064125413
1198,Chipotle BU Terriers,Massachusetts,Brookline,42.35065776049674,-71.11466163346131
1199,Chipotle Burlington Marketplace,Massachusetts,Burlington,42.486152060176174,-71.21269705092556
1200,Chipotle Cambridgeside Galleria,Massachusetts,Cambridge,42.368606370962105,-71.07658478726864
1201,Chipotle Fresh Pond,Massachusetts,Cambridge,42.38926327902601,-71.14341554480706
1202,Chipotle Kendall Square MIT,Massachusetts,Cambridge,42.36256578733272,-71.08569659653136
1203,Chipotle Central Square_Cambridge,Massachusetts,Cambridge,42.36482060978186,-71.10327574604725
1204,Chipotle Chelmsford,Massachusetts,Chelmsford,42.625005,-71.362317
1205,Chipotle Chicopee Crossing,Massachusetts,Chicopee,42.17270365158624,-72.57759079804623
1206,Chipotle Dedham,Massachusetts,Dedham,42.2576406,-71.167616
1207,Chipotle South Bay Center,Massachusetts,Dorchester,42.32573388562526,-71.06219620704309
1208,Chipotle East Longmeadow,Massachusetts,East Longmeadow,42.0650622,-72.5150848
1209,Chipotle Shoppers World,Massachusetts,Framingham,42.30011903231726,-71.39359330059432
1210,Chipotle Franklin Village,Massachusetts,Franklin,42.09008295733779,-71.42173183003263
1211,Chipotle UMASS,Massachusetts,Hadley,42.356924,-72.553844
1212,Chipotle Haverhill,Massachusetts,Haverhill,42.8140687,-71.1016309
1213,Chipotle Derby Street,Massachusetts,Hingham,42.17866250866336,-70.90933764599691
1214,Chipotle Holyoke I91,Massachusetts,Holyoke,42.17505622466462,-72.64153989006121
1215,Chipotle Cape Cod Hyannis,Massachusetts,Hyannis,41.667623,-70.295635
1216,Chipotle Mansfield Marketplace,Massachusetts,Mansfield,42.015969,-71.231264
1217,Chipotle Marlborough,Massachusetts,Marlborough,42.338815,-71.59159667
1218,Chipotle Medford,Massachusetts,Medford,42.40599936777244,-71.08285075070961
1219,Chipotle Methuen The Loop,Massachusetts,Methuen,42.744006045776224,-71.15655964878516
1220,Chipotle Milford Rte 109,Massachusetts,Milford,42.14871568294476,-71.48807081685811
1221,Chipotle Natick,Massachusetts,Natick,42.302334,-71.359564
1222,Chipotle Needham Street,Massachusetts,Newton,42.307846,-71.215047
